   CITY                       ,   LAT,    LON,25-Aug,26-Aug,27-Aug,28-Aug,29-Aug,30-Aug,31-Aug,1-Sep,Totals,Sum,IsSum_Total_Same?
8101 N Corrigan,31.08,-95.7,,,,,,,,,7.96,0,0
8167 N Segno,30.42,-96.54,,,,,,,,,16.23,0,0
8196 NNW Moss Hill,30.32,-96.53,,,,,,,,,16.82,0,0
8214 N High Island,29.55,-95.08,,,,,,,,,40.12,0,0
8343 N High Island,28.99,-95.98,,,,,,,,,10.99,0,0
8344 N High Island,28.97,-96.01,,,,,,,,,18.26,0,0
ABERNATHY                     ,33.84,-101.86,,,0,0,,,,,0,0,1
ABERNATHY                     ,33.88,-101.76,,,0,0,,,,,0,0,1
Abernathy 3.2 NNW,33.875827,101.86175,,,0.08,,0.11,,,,0.19,0.19,1
ABILENE                       ,32.41,-99.68,,,0.16,0,,,,,0.16,0.16,1
Abilene 13.0 NNE,32.6167,99.6251,,0.71,0.07,,,,,,0.78,0.78,1
Abilene 3.3 SW,32.41801,99.775791,0,0.52,0.07,0,0,0,0,0,0.59,0.59,1
Abilene 4.7 SE,32.407663,99.680523,0,0.22,0.18,0,0,0,0,0,0.4,0.4,1
Abilene 5.2 S,32.380647,99.756158,0.87,0.09,,,,,,,0.96,0.96,1
Abilene 5.8 SSW,32.374752,99.769294,,0.86,0.1,,,,,,0.96,0.96,1
Abilene 7.8 SSE,32.346794128418,99.6975250244141,0.07,1.72,0.3,0.05,0,0,0,0,2.14,2.14,1
Acala 2.4 NW,31.36449,105.93551,0,0,0,0,0,0,,0,0,0,1
ADDICKS                       ,29.8,-95.77,,,,,5.55,,,,5.55,5.55,1
Addicks 1 ENE,29.79,-95.62,,,,,,,,,33.2,0,0
Addicks 1 SSW,29.76,-95.65,,,,,,,,,36.3,0,0
Addicks Dam,29.790908,-95.62357,0.88,9.12,17.08,5.04,1.32,0,0,,33.44,33.44,1
ADDICKS/ADDICKS RESERVOIR,29.79,-95.62,,,,,,0.23,,,0.23,0.23,1
Adkins 1.8 WNW,29.399282,98.265864,,0.87,2.1,0.47,,,,,3.44,3.44,1
Adkins 6.4 SSE,29.3083,98.1993,0.28,1,3.26,0.92,0,0,0,0,5.46,5.46,1
ALBANY                        ,32.72,-99.3,,,0.01,,,,,,0.01,0.01,1
ALBANY                  15 NNE,32.93,-99.24,,,0.03,,,,,,0.03,0.03,1
Aledo 2.0 W,32.6903,97.6381,0.32,0.07,0.14,0.13,0,,,,0.66,0.66,1
Aledo 2.9 SW,32.664,97.637,0.35,0,0.12,0.13,0,0,0,0,0.6,0.6,1
Aledo 4.1 W,32.6916,97.6745,1.2,,,0.23,,,,,1.43,1.43,1
ALICE                         ,27.74,-98.02,0.02,0.01,0.29,0,0.01,,,,0.33,0.33,1
Allamoore 4.2 SW,31.05561,105.06964,0.15,0,0,0,,,,0,0.15,0.15,1
Alpine 0.7 WSW,30.36085,103.67705,0.39,0,0.02,0,0,0,0,0,0.41,0.41,1
Alpine 49.6 SSE,29.70378,103.33648,0,0,0.1,0,0,0,0,0,0.1,0.1,1
Alpine 7.9 SE,30.276384,103.579714,0.88,0,0,0,0,0,0,0,0.88,0.88,1
ALTAIR                        ,29.58,-96.42,0,6.31,5.54,3.21,1.86,0,0,,16.92,16.92,1
ALVARADO                      ,32.44,-97.22,,,0.07,0.15,0.47,,,,0.69,0.69,1
Alvin  ,29.4122,-95.1787,,,,,,,,,25.94,0,0
Alvin 1.6 SW,29.417609,95.267347,1.3,5.9,8.96,10.8,5.92,0.72,,,33.6,33.6,1
ALVORD                   4 NE,33.39,-97.66,,,0,0,0,0,,,0,0,1
Amarillo 13.6 WSW,35.1588897705078,102.053726196289,0.39,,,0.37,,,,,0.76,0.76,1
Amarillo 2.9 WNW,35.211641,101.869066,,,,,2.2,,0,0,2.2,2.2,1
Amarillo 3.5 SW,35.173376,101.868663,,,,0.12,,,,,0.12,0.12,1
Amarillo 4.5 SE,35.160126,101.759105,,0.79,,0.1,,,,,0.89,0.89,1
Amarillo 4.8 WSW,35.1747627258301,101.896186828613,0.06,0.19,0,0.12,0,0,0,0,0.37,0.37,1
Amarillo 4.9 SSE,35.133904,101.799731,0.09,0.3,,0.11,,,,,0.5,0.5,1
Amarillo 5.0 W,35.196128,101.906196,,,,0.12,,,,,0.12,0.12,1
Amarillo 7.2 SW,35.1270751953125,101.906692504883,0.05,0,0,0.03,0,0,0,0,0.08,0.08,1
Amarillo 9.2 S,35.0700263977051,101.815299987793,0.03,0.05,0,0.03,0,0,,0,0.11,0.11,1
AMISTAD                  7 S,29.46,-101.03,,0.02,,0.02,,,,,0.04,0.04,1
ANAHUAC                  1 ENE,29.78,-94.66,0.56,,,,,,,,0.56,0.56,1
Anahuac Ditch at Hwy 563,29.75215,-94.6733,1.22,4.85,11.26,13.22,10.71,0.2,0,,41.46,41.46,1
Anderson Mill 0.9 WNW,30.459433,97.819685,,0.97,2.2,0.76,,,,,3.93,3.93,1
Anderson Mill 1 SE,30.44,-97.8,,,,,,,,,5.45,0,0
Anderson Mill 1 SW,30.44,-97.82,,,,,,,,,5.84,0,0
Anderson Mill 1.1 ENE,30.4597,97.788,,0.65,2.93,,,,,,3.58,3.58,1
Anderson Mill 2 SSE,30.42,-97.8,,,,,,,,,7.1,0,0
Anderson Mill 2.2 S,30.4223,97.8062,0.49,1.47,4.3,1.23,0.02,0,0,0,7.51,7.51,1
Anderson Mill 3 WSW,30.44,-97.84,,,,,,,,,3.99,0,0
Anderson Mill 5 SSW,30.42,-97.82,,,,,,,,,4.99,0,0
Andice 1.6 SW,30.760289,97.85699,0.03,0.25,1.51,0.85,0,0,0,0,2.64,2.64,1
Andice 2 NE,30.86,-97.77,,,,,,,,,2.37,0,0
ANGLETON                10 SW,29.14,-95.29,0.33,8.05,3.77,2.37,6.37,0.8,0,,21.69,21.69,1
Angleton 1.3 E,29.16962,95.4068,2.13,7.16,3.46,3.3,4.92,0,0,0,20.97,20.97,1
ANGLETON/LAKE JACKSON         ,29.11,-95.46,2.02,5.61,2.34,2.45,5.91,0.16,,,18.49,18.49,1
Anna 0.3 SW,33.34953,96.552523,,0.05,0.03,,,,,,0.08,0.08,1
Anna 3.7 SSW,33.312697,96.582716,0,0.01,0.12,0.01,0,0,0,0,0.14,0.14,1
ANSON                         ,32.77,-99.89,,,0,,,,,,0,0,1
ANTELOPE                      ,33.44,-98.37,,,0,0,0,,,,0,0,1
Anthony 1.0 ENE,31.998891,106.574994,0,0,0,0,0,0,0,0,0,0,1
AQUILLA                  2 S,31.84,-97.21,0.15,0,1.03,0,0,0,,,1.18,1.18,1
Aquilla 1.3 NNE,31.87406131,97.2169648,0.21,0.16,0.8,0.01,0,0,0,,1.18,1.18,1
Aransas  ,28.3044,-96.8234,,,,,,,,,15.33,0,0
Aransas Pass,27.9568,-97.1222,,,,,,,,,6,0,0
Aransas National Estuarine Research Reserve,28.1322,-97.0344,,,,,,,,,12.38,0,0
ARCHER CITY                   ,33.59,-98.64,,,,0,0,,,,0,0,1
ARCHER CITY              5 N,33.66,-98.61,,,0,0,0,,,,0,0,1
Argyle 1.6 NNW,33.13059,97.193155,0.01,0.01,0.03,0.02,0.04,0,0,0,0.11,0.11,1
ARLINGTON                     ,32.74,-97.13,,,0.1,0.7,0.05,0.03,,,0.88,0.88,1
ARLINGTON                     ,32.66,-97.09,,,,0,0.1,0,,,0.1,0.1,1
Arlington 3.8 NNW,32.742222,97.158333,,0,0.03,0.12,,,,,0.15,0.15,1
Armand Bayou @ Beltway 8,29.683502,-95.183473,1,11.52,15.88,10.12,4.84,0,0,,43.36,43.36,1
Armand Bayou @ Genoa-Red Bluff Road,29.633755,-95.114485,1,8.36,18.6,9.76,4.56,0,0,,42.28,42.28,1
Armand Bayou @ Pasadena Lake (Nasa Road 1),29.564191,-95.070795,1.68,5.52,20.68,10.12,3.52,0.04,0,,41.56,41.56,1
ARMSTRONG                4 SE,26.83,-97.71,0.51,,0,0,0,,,,0.51,0.51,1
Arp 5.9 NNW,32.305886801,95.09824905,,0.04,0.3,0.04,0,0,0,0,0.38,0.38,1
Artesia Wells 14.0 SE,28.235,99.067778,,0,0.01,,,,,,0.01,0.01,1
ARTHUR CITY                   ,33.88,-95.5,,,0,0,1.25,0.01,0,,1.26,1.26,1
ARTHUR CITY              3 WSW,33.85,-95.54,,,0,0,1,0,0,,1,1,1
ASPERMONT                1 E,33.15,-100.23,,,0,0,,,,,0,0,1
ASPERMONT                3 NE,33.17,-100.2,,,0,0,,,,,0,0,1
Atascosa 2.3 NE,29.2872924804688,98.7068939208984,,0.41,0.36,,,,,,0.77,0.77,1
ATHENS                   3 SSE,32.16,-95.83,,,0.19,0.03,0,0,0,,0.22,0.22,1
ATHENS                   5 ENE,32.22,-95.77,,,0.21,0.07,0,0,0,,0.28,0.28,1
Athens 10.1 SSW,32.07271111,95.93086667,0,0.04,0.37,0.02,0,0,0.02,0,0.45,0.45,1
ATLANTA                       ,33.12,-94.17,,,,0,0,0,0.21,,0.21,0.21,1
Atlanta 0.3 E,33.11689,94.159809,0,0,0,0,0,0,0.19,0,0.19,0.19,1
Atlanta 14.1 SSE,32.938994,94.04536,,,,,,,0.74,,0.74,0.74,1
Aubrey 2.9 SW,33.2723,97.0148,,0.03,0.06,,,,,,0.09,0.09,1
Aubrey 5.9 SSE,33.227044,96.94331,,,,0,,,,,0,0,1
AUSTIN                        ,30.24,-97.69,0.13,1.18,6.78,1.72,0.01,0,,,9.82,9.82,1
AUSTIN                        ,30.26,-97.77,,0.04,,,,,,,0.04,0.04,1
AUSTIN                        ,30.35,-97.8,0,0.77,4.79,1.28,0.01,0,,,6.85,6.85,1
AUSTIN                        ,30.39,-97.9,0.07,0.67,3.19,0.84,0.01,0,,,4.78,4.78,1
AUSTIN                        ,30.25,-97.72,0.03,1.3,7.58,1.84,0,0,,,10.75,10.75,1
AUSTIN                        ,30.28,-97.65,0.22,1.13,6.14,1.8,0.01,0,,,9.3,9.3,1
AUSTIN                   4 SW,30.24,-97.8,0,1.02,5.45,1.26,0,0,,,7.73,7.73,1
AUSTIN                   7 NW,30.37,-97.79,0,0.86,4.48,1.26,0.02,0,,,6.62,6.62,1
AUSTIN                   8 SSE,30.17,-97.7,0,1.5,7.95,1.52,0.03,,,,11,11,1
AUSTIN                  10 NW,30.35,-97.87,0.01,0.64,4.56,1.04,0.01,0,,,6.26,6.26,1
AUSTIN                  11 NW,30.33,-97.93,0.01,0.58,3.61,0.72,0,0,,,4.92,4.92,1
AUSTIN                  16 NW,30.37,-97.96,0.05,0.54,3.38,0.88,0,0,,,4.85,4.85,1
AUSTIN                  25 NW,30.46,-97.98,0.17,0.55,2.9,1.07,0,0,,,4.69,4.69,1
Austin 0.8 WSW,30.3027896881104,97.7629318237305,,0.87,4.38,1.34,,,,,6.59,6.59,1
Austin 1 ENE,30.28,-97.72,,,,,,,,,3.31,0,0
Austin 1.0 N(45th&ShCrk),30.320713,97.750208,0.04,0.94,5.37,1.68,0.02,0,0,0,8.05,8.05,1
Austin 1.0 NNE,30.318536,97.743766,0.03,0.9,4.6,1.29,0.03,0,0,0,6.85,6.85,1
Austin 1.6 NE,30.324785,97.734624,0,1.81,4.68,1.48,0,0,0,0,7.97,7.97,1
Austin 1.7 NNW(45th&Lp1),30.329002,97.762056,,1.58,4.75,1.62,0,0,0,0,7.95,7.95,1
Austin 10.0 NNW (GrtHills),30.41435,97.766352,0.04,1.52,3.29,1.31,0.03,0,0,0,6.19,6.19,1
Austin 10.5 N,30.4189,97.7578,0.06,0.85,4.68,1.56,0.03,0,,,7.18,7.18,1
Austin 10.8 WSW,30.195271,97.90217,0,0.53,4.58,1.13,0.02,0,0,0,6.26,6.26,1
Austin 13.7 WNW,30.378025,97.933111,,0.72,3.23,0.97,,,,,4.92,4.92,1
Austin 14.7 WSW,30.19801,97.97474,0.15,1.03,5.81,1.24,0.02,,,,8.25,8.25,1
Austin 2 NNE,30.29,-97.73,,,,,,,,,7.08,0,0
Austin 2 NW,30.29,-97.76,,,,,,,,,5.72,0,0
Austin 2.2 NNE,30.334148,97.732739,,5.8,2,0.8,,,,,8.6,8.6,1
Austin 2.6 ENE,30.322693,97.712234,0.03,,,,,0,0,0,0.03,0.03,1
Austin 2.9 NE(Lamar&Arpt),30.339555,97.722753,0.09,3.27,4.57,0.91,0.01,0,0,0,8.85,8.85,1
Austin 2.9 NNW,30.3420581817627,97.7762145996094,0.02,0.82,4.64,1.51,0.03,0,0,0,7.02,7.02,1
Austin 3 NNE,30.3,-97.73,,,,,,,,,6.22,0,0
Austin 3 SE,30.23,-97.71,,,,,,,,,2.9,0,0
Austin 3.9 NNE,30.3574,97.72355,0.28,1.03,6.12,2.05,0.02,0,0,0,9.5,9.5,1
Austin 4 NE,30.32,-97.69,,,,,,,,,4.68,0,0
Austin 4 SSE,30.25,-97.73,,,,,,,,,10.68,0,0
Austin 4.0 SSE,30.251644,97.726151,,0.83,3.7,1.32,0.07,,,,5.92,5.92,1
Austin 4.1 SSW,30.2523,97.7785,0,1.08,4.81,1.33,0,0,,,7.22,7.22,1
Austin 4.1 SW,30.2277973,97.793987,0,1.8,5.2,1.46,,,,,8.46,8.46,1
Austin 4.2 ESE,30.2926788330078,97.681282043457,0.19,2.22,5.44,2.05,,,,,9.9,9.90,1
Austin 4.2 NW(360&Penneb),30.352458,97.794666,0,1.26,3.56,1.34,0,0,0,0,6.16,6.16,1
Austin 4.5 ENE,30.320119,97.677162,0.02,2.18,4.79,1.55,0.02,0,0,0,8.56,8.56,1
Austin 4.5 NNE,30.3693962097168,97.731315612793,0.03,1.5,5.06,1.99,0.03,0,0,0,8.61,8.61,1
Austin 4.7 E(JordanPk),30.31417,97.67283,0.06,1.72,4.47,1.58,0,0,0,0,7.83,7.83,1
Austin 4.7 NNE,30.373405,97.732811,0,1.51,4.68,1.87,0.02,,,,8.08,8.08,1
Austin 5 NNW,30.34,-97.75,,,,,,,,,6.6,0,0
Austin 5.6 WSW,30.280817,97.839183,0,1.41,5.11,1.34,0.01,0,0,0,7.87,7.87,1
Austin 5.8 ENE,30.338787,97.661937,0.1,,,,,,,,0.1,0.1,1
Austin 5.8 ESE,30.260574,97.669399,,,7.71,,,,,,7.71,7.71,1
Austin 5.9 NW,30.372069,97.81338,0.17,0.88,2.65,0.88,0.03,0,0,0,4.61,4.61,1
Austin 6.5 NE,30.383809,97.689473,0.11,1.83,5.01,1.98,0.02,,,,8.95,8.95,1
Austin 7.3 SW,30.207183,97.843988,,1.06,6.6,1.44,,,,,9.1,9.1,1
Austin 7.6 W,30.295181,97.877516,0,0.93,3.49,0.98,0.01,0,0,0,5.41,5.41,1
Austin 7.7 SW,30.23312,97.848038,,1.45,5.85,1.3,0.03,,,,8.63,8.63,1
Austin 7.8 SW,30.231063,97.8476,,1.71,5.82,1.42,,,,,8.95,8.95,1
Austin 7.9 N,30.4178886413574,97.7756805419922,0,,,,,,,,0,0,1
Austin 8.2 WSW,30.228605,97.873889,,1.1,5.61,1.25,0.03,,,,7.99,7.99,1
Austin 8.5 NNW,30.419358,97.805038,0,1.61,4.05,1.22,0.03,,,,6.91,6.91,1
Austin 9.0 SW,30.221936,97.866815,,2.06,3.29,0.94,,,0,,6.29,6.29,1
Austin 9.7 WSW,30.2412948608398,97.9012680053711,,1.33,4.44,0.92,,,,,6.69,6.69,1
Austin 9.8 WSW,30.2413787841797,97.8962020874023,0,0.89,5.17,1.21,0.03,,,,7.3,7.3,1
AUSTIN Bergstrom Int'l AP          ,30.18,-97.68,0,1.24,7,1.83,0,0,,,10.07,10.07,1
AUSTIN City      ,30.3,-97.7,0.02,0.94,5.39,1.6,0.01,0,,,7.96,7.96,1
AUSTIN GREAT HILLS            ,30.42,-97.77,,,4.78,1.31,0.03,0,,,6.12,6.12,1
AUSTWELL                      ,28.39,-96.84,0.65,,,,,,,,0.65,0.65,1
Austwell 0.3 ESE,28.388527,96.838237,0.65,,,,,,,,0.65,0.65,1
Avinger 6.6 S,32.80232,94.55016,,,,,0,0,0.31,0,0.31,0.31,1
Axtell 1.9 SW,31.63775,96.99203,0,0.01,0.56,0.1,0,0,0,0,0.67,0.67,1
Bacliff 0.5 SSE,29.501437,94.9897979,0.71,2.16,21.62,3.09,10.56,2.35,0,0,40.49,40.49,1
Bacliff 1.2 E,29.509724,94.972731,,7.25,11.5,3.15,9.34,,,,31.24,31.24,1
Baird 0.1 WNW,32.3961,99.3967,0.59,0.09,,,,,,,0.68,0.68,1
BALCONES                      ,30.57,-98.04,0.44,0.17,1.92,0.9,0,,,,3.43,3.43,1
BALLINGER                3 NW,31.74,-98.98,0.02,0.1,0,0,,,,,0.12,0.12,1
Bandera 0.2 N,29.728373,99.073475,0,0,0.22,0.02,0,0,0,0,0.24,0.24,1
Bandera 3.2 W,29.720246,99.126232,0,0.25,0.11,0.04,0,0,,,0.4,0.4,1
Bandera 4.0 E,29.7300338745117,99.0073394775391,0,0.03,0.36,0.01,0,0,0,0,0.4,0.4,1
Bandera 4.0 NNW,29.7759037017822,99.1063385009766,0,0.2,0.22,0.05,0,0,0,0,0.47,0.47,1
Bandera 4.7 NE,29.771426,99.016105,0,0.07,0.51,0.02,0,0,0,0,0.6,0.6,1
Bandera 5.2 E,29.7166,98.988,0,0.05,0.3,0.01,0,0,0,0,0.36,0.36,1
Bandera 6.4 N,29.817467,99.08387,0.54,0.17,0.18,,,,,,0.89,0.89,1
Bandera 6.5 NW,29.797582,99.143444,,0.22,0.28,0,0,0,0,0,0.5,0.5,1
Bandera 7.4 ENE,29.77577,98.965209,,,0.75,0.05,,,,,0.8,0.80,1
Bandera 8.4 NE,29.80025,98.96315,,,,0,0,0,0,0,0,0,1
Bandera 8.6 NNW,29.84305,99.11905,0.05,0.3,0.4,,,,,0,0.75,0.75,1
Bankersmith,30.13,-98.82,,,,,,,,,1.52,0,0
Bankersmith 8 WNW,30.2,-98.93,,,,,,,,,1.29,0,0
BARDWELL                      ,32.25,-96.65,,,0.23,0.18,0,,,,0.41,0.41,1
Barker Dam,29.76986,-95.646848,1.2,8.92,17.16,7.4,1.8,0,0,,36.48,36.48,1
BARNHART                10 S,30.99,-101.16,,,0.01,0,,,,,0.01,0.01,1
Bartlett 4 WSW,30.77,-97.47,,,,,,,,,4.46,0,0
Bartlett 5.0 W,30.7922821044922,97.5161819458008,0,0.23,3.17,1.79,0.03,0,0,0,5.22,5.22,1
BASTROP                       ,30.04,-97.31,0.5,2.23,13.94,3.39,0.1,0,,,20.16,20.16,1
Bastrop 0.6 WNW,30.115627,97.314937,0.21,3.47,11,2.3,0,0,0,0,16.98,16.98,1
Bastrop 1 WSW,30.1,-97.33,,,,,,,,,16.4,0,0
Bastrop 1.0 WNW,30.116018,97.322598,,,,,,,0,0,0,0,1
Bastrop 1.2 N,30.1306,97.3025,0.25,2.2,12.96,2.96,0.03,0,0,0,18.4,18.4,1
Bastrop 1.5 NW,30.111778,97.335306,0.44,6.14,8.72,1.42,,0,0,0,16.72,16.72,1
Bastrop 2.1 SSW,30.084116,97.317284,,3.3,9.13,2.89,0.02,,,,15.34,15.34,1
Bastrop 2.4 WNW,30.120665,97.343743,0.78,2.39,11.19,2.56,0.07,0,0,0,16.99,16.99,1
Bastrop 3.0 SSE,30.074126,97.283749,,3.5,13.4,2.6,,0,0,0,19.5,19.5,1
Bastrop 4.4 NE,30.1501903533936,97.2450103759766,0.05,3.35,9.5,3.1,0,0,0,0,16,16,1
Bastrop 4.7 NE,30.166059,97.255333,,3.5,10.86,3.11,0.02,0,0,,17.49,17.49,1
Bastrop 5 S,30.03,-97.32,,,,,,,,,19.62,0,0
Bastrop 5.1 NE,30.168476,97.249812,,10.1,5.22,1.65,0.02,0,0,0,16.99,16.99,1
Bastrop 5.2 SE,30.054658,97.249557,0,3.35,10.7,3.84,0.03,0,0,0,17.92,17.92,1
Bastrop 5.7 NE,30.1709,97.2373,0,3.4,10.61,3.3,0,,,,17.31,17.31,1
Bastrop 5.7 SW,30.0447654,97.3589626,0.39,2.13,12.97,3.75,0.02,0,0,0,19.26,19.26,1
Bastrop 5.8 NE,30.167985,97.232655,0.02,7.32,6.63,3.18,0,0,0,0,17.15,17.15,1
Bastrop 7.2 N,30.215411,97.328436,0,2.87,5.16,2.42,0.05,0,0,0,10.5,10.5,1
Bastrop 7.6 N,30.2211971282959,97.3242416381836,0,2.97,7.58,2.85,0.07,0,0,0,13.47,13.47,1
Bastrop/Cedar Creek,30.09,-97.5,,,,,,,,,15.25,0,0
Batiste Creek @ State Highway 770 (Hull),30.16444,-94.64278,0.27,3.19,11.97,7.32,8.82,1.89,0,,33.46,33.46,1
Batson 2 ENE,30.25,-94.58,,,,,,,,,33.07,0,0
BAY CITY                      ,28.94,-96.01,0.86,8.45,5.36,0.49,7.94,0.01,0,,23.11,23.11,1
Baytown 2 NW,29.77,-95,,,,,,,,,42.9,0,0
Baytown 4 E,29.74,-94.97,,,,,,,,,42.72,0,0
Bayview 2.9 N,26.1669,97.3983,0.54,,0.3,,,,,,0.84,0.84,1
Beamer Ditch @ Hughes Road,29.591725,-95.222089,1.64,13.52,13.4,8.28,3.16,0,0,,40,40,1
Bear Creek @ Clay Road,29.831211,-95.687108,0.84,8.72,16.28,5.16,1.48,0,0,,32.48,32.48,1
Bear Creek @ FM 529,29.875125,-95.769477,0.76,9.24,17.64,4,1.32,0,0,,32.96,32.96,1
Beaumont,30.08,-94.14,,,,,,,,,41.42,0,0
Beaumont,30.08,-94.14,,,,,,,,,38.86,0,0
BEAUMONT                      ,30.1,-94.1,0.05,0.55,4.95,10.18,4.6,14.5,,,34.83,34.83,1
BEAUMONT                10 W,30.07,-94.28,0.05,,,,,,,,0.05,0.05,1
Beaumont 1 ENE,30.09,-94.13,,,,,,,,,38.5,0,0
Beaumont 1 NW,30.09,-94.16,,,,,,,,,41.5,0,0
Beaumont 2 NNW,30.11,-94.16,,,,,,,,,36.22,0,0
Beaumont 2 SE,30.06,-94.12,,,,,,,,,41.42,0,0
Beaumont 2 SW,30.06,-94.17,,,,,,,,,43.23,0,0
Beaumont 2 W,30.08,-94.18,,,,,,,,,41.93,0,0
Beaumont 3 N,30.13,-94.14,,,,,,,,,39.76,0,0
Beaumont 3 NE,30.11,-94.11,,,,,,,,,39.65,0,0
Beaumont 3.3 SW,30.052703,94.181985,0.18,1.34,5.86,12.38,11.32,,1.72,0,32.8,32.80,1
Beaumont 4 NNW,30.14,-94.17,,,,,,,,,39.8,0,0
Beaumont 4 S,30.02,-94.14,,,,,,,,,49.06,0,0
Beaumont 4 SW,30.04,-94.19,,,,,,,,,43.78,0,0
Beaumont 4 WSW,30.06,-94.21,,,,,,,,,46.54,0,0
Beaumont 4.6 S,30.022459,94.155461,0,0.86,9.81,7.52,11,15.31,1,0,45.5,45.5,1
Beaumont 5 NNW,30.15,-94.18,,,,,,,,,41.3,0,0
Beaumont 6 SSW,30,-94.18,,,,,,,,,46.38,0,0
Beaumont Yacht Club @ Neches River,30.09722,-94.09111,0.36,3.11,8.93,5.59,17.41,6.02,0,,41.42,41.42,1
Bedford 0.5 W,32.847326,97.142105,0.01,0,0.17,0.57,0,0,0,0,0.75,0.75,1
Bedford 0.6 NNE,32.854356,97.131006,0.02,0,0.16,0.52,0,0,,,0.7,0.7,1
Bee Cave 1 ESE,30.3,-97.93,,,,,,,,,6.72,0,0
Bee Cave 2.5 ENE,30.323362,97.916501,0,1.15,3.19,0.7,0.02,0,0,0,5.06,5.06,1
Bee Cave 4 SSE,30.26,-97.92,,,,,,,,,4.35,0,0
Beeville 4.5 NW,28.450615,97.803773,2.7,,,0.04,0.1,0,0,0,2.84,2.84,1
Beeville 9.0 S,28.2751067,97.7600733,0.11,2.27,0.74,0.25,0.02,0,0,0,3.39,3.39,1
Beeville 12.6 NNE,28.5825,97.700567,0.02,3.1,1.02,0.9,,,,,5.04,5.04,1
Bellaire 4.2 W,29.6953945159912,95.5300445556641,0.02,2.44,10.87,6.77,6.48,0.49,0,0,27.07,27.07,1
BELLVILLE                     ,30.02,-96.2,,,,,0.78,,0,,0.78,0.78,1
Bellville 0.4 NE,29.9515,96.254409,0.57,4.89,7.68,10.65,0.87,0,0,0,24.66,24.66,1
Bellville 0.9 ENE,29.950791,96.245167,0.46,4.7,6.7,10.39,0.88,0.02,0,,23.15,23.15,1
Bellville 6.5 NNE,30.034102,96.220877,0.13,3.32,4.91,8.61,0.82,0.02,0,0,17.81,17.81,1
BELTON                   5 WSW,31.02,-97.53,0,0.22,1.22,0.44,0,,,,1.88,1.88,1
Belton 0.4 E,31.066986,97.456434,0,0.04,1.13,0.38,0.01,0,0,0,1.56,1.56,1
Belton 1.4 WSW,31.059781,97.484732,0,0.22,,,0,,0,0,0.22,0.22,1
Belton 1.6 W,31.06431,97.49121,0,0.18,1.01,,0,,0,0,1.19,1.19,1
Belton 2.3 NNW,31.098431,97.481556,0,0.02,1.05,0.44,0,0,0,0,1.51,1.51,1
Belton 3.9 N,31.123892,97.473297,0,0.02,1.11,0.43,0.01,0,0,0,1.57,1.57,1
Belton 4.4 WNW,31.0947,97.5319,0.02,0,1.12,0.4,0.02,0,0,0,1.56,1.56,1
Belton 5.4 NW,31.1231,97.52838,0,0.01,0.95,0.51,0,0,0,0,1.47,1.47,1
Belton 6.0 N,31.154547,97.475295,0.21,0.23,0.86,0.55,0.02,0,,0,1.87,1.87,1
Belton 6.4 S,30.975857,97.460482,0,0.3,1.3,1.21,0.03,0,0,0,2.84,2.84,1
Belton 7.4 WSW,31.0438,97.5846,0,0.23,1.5,0.5,0,0,0,,2.23,2.23,1
Ben Wheeler 1.7 WNW,32.451134249568,95.7319457083941,,,0.05,0.02,0,0,0.01,0,0.08,0.08,1
Ben Wheeler 2.4 N,32.480195,95.702584,0,0,0.12,0.01,0,0,0.01,0,0.14,0.14,1
Ben Wheeler 3.9 ESE,32.431226,95.638541,,,,0.05,0,0,0,,0.05,0.05,1
BENBROOK                      ,32.65,-97.44,,,0,0.35,0,,,,0.35,0.35,1
Benbrook 2.1 N,32.7081,97.4603,1.05,0.01,0.06,0.25,,,,,1.37,1.37,1
BEND                          ,31.09,-98.52,0,0,0.05,0.27,0,,,,0.32,0.32,1
BEND                     3 S,31.05,-98.5,0.11,0,0.08,0.14,0,,,,0.33,0.33,1
BENJAMIN                 4 N,33.65,-99.8,,,0,0,,,,,0,0,1
Benjamin 0.2 SSE,33.58027778,99.79222222,0,,,0,0,0,0,0,0,0,1
Berclair 7.3 NW,28.6137776076794,97.6647307723761,0.07,4.33,1.43,1.24,0.03,0,0,0,7.1,7.1,1
Bergstrom 2 SW,30.17,-97.69,,,,,,,,,9.58,0,0
Bergstrom 3 NNW,30.22,-97.68,,,,,,,,,9.64,0,0
Bergstrom 5 N,30.27,-97.67,,,,,,,,,9.05,0,0
Bergstrom 5 NE,30.24,-97.62,,,,,,,,,9.32,0,0
Berry Bayou @ Forest Oaks Boulevard,29.67638882222,-95.24361,1.16,13.64,15.72,9.64,4.72,0,0,,44.88,44.88,1
Berry Bayou @ Nevada Avenue,29.656295,-95.228933,1.48,14.4,14.84,9.24,4.64,0,0,,44.6,44.6,1
Berry Creek,30.7,-97.68,,,,,,,,,4.05,0,0
BERTRAM                  3 ENE,30.76,-98.02,,0.03,1.21,0.58,,,,,1.82,1.82,1
Bertram 6.4 ESE,30.713117,97.9559,0.06,0.41,1.4,,,,,,1.87,1.87,1
Bertram 7 SSW,30.65,-98.08,,,,,,,,,2.75,0,0
BERTRAM 8 SSW,30.64,-98.11,0.01,0.13,1.88,0.81,0.01,,,,2.84,2.84,1
Bertram 8.8 SSW,30.62321667,98.10461667,0.02,0.47,1.45,0.52,0.01,0,0,0,2.47,2.47,1
Bertram 9 NNW,30.85,-98.09,,,,,,,,,0.85,0,0
Bertram 9.1 SSW,30.6148906052113,98.0877479910851,0.02,0.49,1.7,0.64,0,0,0,0,2.85,2.85,1
Bertram 9.4 NE,30.8546,97.9661,0,0.31,1.63,0.78,,0,,,2.72,2.72,1
Bevil Oaks 1 SW,30.14,-94.28,,,,,,,,,31.38,0,0
Bevil Oaks 2 SE,30.13,-94.25,,,,,,,,,37.8,0,0
Bevil Oaks 4 E,30.15,-94.2,,,,,,,,,33.66,0,0
Bevil Oaks 4 E,30.15,-94.2,,,,,,,,,24.72,0,0
Bevil Oaks 4 S,30.09,-94.27,,,,,,,,,39.25,0,0
Bevil Oaks 5 ENE,30.18,-94.19,,,,,,,,,47.28,0,0
Big Island Slough @ Fairmont Parkway,29.651497,-95.076001,1.04,5.16,18.08,9.72,4.96,0,0,,38.96,38.96,1
BIG LAKE                25 NE,31.53,-101.28,,,0,0,,,,,0,0,1
Big Sandy 3.9 E,32.58543,95.04561,0,0,0,0.14,0.01,0,0.02,0,0.17,0.17,1
Big Sandy 6.6 N,32.6797,95.1312,0,0,0.02,0,0,,,,0.02,0.02,1
BIG SPRING               1 NNW,32.27,-101.49,,,,0,,,,,0,0,1
Birch Creek @ Riley Road,30.237906,-95.839529,0.28,12.36,13.6,1.64,0.48,0,0,,28.36,28.36,1
Black Creek @ State Highway 326,30.25556,-94.36472,0.24,3.15,11.18,6.81,12.6,8.62,0,,42.6,42.6,1
BLACKWELL                     ,32.05,-100.29,,,0.02,0,,,,,0.02,0.02,1
BLANCO                        ,30.1,-98.42,0.26,0.4,0.6,,0,,,,1.26,1.26,1
BLANCO                   5 NNE,30.16,-98.38,0.48,0.59,2.24,0.82,0,,,,4.13,4.13,1
BLANCO                  13 WNW,30.17,-98.61,0,0.38,1.45,0.46,0,,,,2.29,2.29,1
Blanco 1.8 ESE,30.09209228,98.39271356,0.02,0.88,1.85,0.66,0,0,0,0,3.41,3.41,1
Blanco 11.6 W,30.1116,98.6154,,0.3,1.4,,,,,,1.7,1.7,1
Blanco 4 NNE,30.15,-98.4,,,,,,,,,3.61,0,0
Blanco 5.1 ENE,30.12165,98.34126,0.03,0.39,,,,,,,0.42,0.42,1
Blanco 5.5 E,30.09125,98.329722,0,0.63,2.52,0.76,0,0,0,0,3.91,3.91,1
Blanco 5.7 W,30.105446,98.518093,0,0.08,0.72,0.3,,,,,1.1,1.1,1
Blanco 6.8 WSW,30.056883,98.526068,,0.41,0.92,0.39,,,,,1.72,1.72,1
Blanco 8.3 ENE,30.1364924758673,98.2914818823338,0.04,0.78,2.58,0.85,,0,,0,4.25,4.25,1
Blanco 8.8 ENE,30.1485,98.2865,0,0.41,3.48,1.05,0,,,0,4.94,4.94,1
Blanco River,29.94,-98.02,,,,,,,,,9.08,0,0
Blooming Grove 2.4 SW,32.067011,96.745022,0.09,0.07,0.4,0,0.08,0,0,0,0.64,0.64,1
Blue Mound 1.6 ENE,32.865927,97.313138,1.17,0.04,0.19,0.84,0,0,0,0,2.24,2.24,1
Blue Mound 2.3 E,32.847644,97.297655,1.13,,,,0,0,0,0,1.13,1.13,1
Blue Ridge 5.1 ESE,33.271907,96.317582,0,0.39,0.01,0.03,0.26,0,0,0,0.69,0.69,1
BLUFFTON                 5 ESE,30.84,-98.36,0,0,0.45,0.32,0,,,,0.77,0.77,1
Blum 7.2 ESE,32.119773,97.276865,0.75,,,0.6,,,,,1.35,1.35,1
Bob Love Ranch,30.82889,105.19444,,,,,,,0,,0,0,1
BOERNE                        ,29.8,-98.73,0.12,0.1,1.08,0.21,,,,,1.51,1.51,1
Boerne 0.7 N,29.804212,98.733208,0,0.1,0.77,0.19,0,0,0,0,1.06,1.06,1
Boerne 1.2 E,29.794939,98.712215,0,0.22,0.89,0.23,0,,,,1.34,1.34,1
Boerne 1.2 NNW,29.809575,98.7428194444,0,,,,0,,0,,0,0,1
Boerne 1.6 ESE,29.781864,98.708956,0.02,,,,0,0,0,0,0.02,0.02,1
Boerne 1.8 E,29.794583,98.701363,0.02,0.41,,,,,,,0.43,0.43,1
Boerne 10.6 NE,29.904615,98.609285,0.03,0.09,0.74,0.43,0,0,0,0,1.29,1.29,1
Boerne 10.9 N,29.949838,98.701580448,0.11,0.34,0.7,0.2,,,,,1.35,1.35,1
Boerne 11.0 ENE,29.8759,98.5738,,,0.59,,,,,,0.59,0.59,1
Boerne 13.4 NE,29.9075306,98.5506083,0,0.52,0.43,0,0,0,0,0,0.95,0.95,1
Boerne 2.0 WNW,29.798611,98.764722,,0.2,0.55,,,,,,0.75,0.75,1
Boerne 2.1 WNW,29.805839,98.7638769,,0.22,0.8,,,,,,1.02,1.02,1
Boerne 2.2 WNW,29.802052,98.767011,0,0.26,0.69,,,0,0,0,0.95,0.95,1
Boerne 3.4 N,29.8428,98.7398,0,0.18,0.7,,,,,,0.88,0.88,1
Boerne 4.0 WSW,29.762631,98.786833,0,0.08,0.7,0.26,0,0,0,0,1.04,1.04,1
Boerne 4.3 NE,29.845019,98.694661,0,0.01,0.6,0.24,0,0,0,,0.85,0.85,1
Boerne 4.7 WNW,29.827772,98.800917,0,0.18,0.65,0.03,0,0,0,0,0.86,0.86,1
Boerne 5.1 NNW,29.856008,98.777403,0.02,0.14,0.54,0.07,0,0,0,0,0.77,0.77,1
Boerne 5.2 ENE,29.826,98.653,0,0.2,0.67,0.38,0,0,0,0,1.25,1.25,1
Boerne 5.3 N,29.871493,98.725039,,0.08,0.55,0.18,,,,,0.81,0.81,1
Boerne 6.0 WSW,29.754064,98.820183,0,0.15,1.38,0.08,0,0,0,0,1.61,1.61,1
Boerne 6.5 N,29.889059,98.725715,,0.08,0.59,0.19,,,,,0.86,0.86,1
Boerne 7.8 NE,29.8822631835938,98.6494979858398,,0.18,0.3,0.23,,,,,0.71,0.71,1
Boerne 8.1 NNW,29.9069444,98.7694444,0,0.73,0.55,0.05,0,0,0,0,1.33,1.33,1
Boerne 8.4 ENE,29.82444444,98.59666667,0.07,0.41,0.8,0.37,0,0,0,0,1.65,1.65,1
Boerne 8.5 NNW,29.910117,98.762533,0,0.53,0.67,0.1,0,0,0,0,1.3,1.3,1
Boerne 8.8 NE,29.87225,98.6158,,,0.65,0.35,0,0,0,0,1,1,1
BONHAM                   3 NNE,33.62,-96.17,,,,0,0,0,0,,0,0,1
Bonham 4.0 NE,33.637838,96.140848,0,0,0.01,0,0,0,0,0,0.01,0.01,1
BONITA                   4 NW,33.84,-97.63,,,,0,0,0,,,0,0,1
Boondocks Road @ Taylors Bayou @ South Fork ( bridge ),29.84639,-94.22639,0.75,3.15,7.12,7.91,27.49,1.57,0,,47.99,47.99,1
Borger 0.7 NNE,35.6690744,101.39528,0,0,0,0,0,0,0,0,0,0,1
Bosque Bonita,30.69722222,105.0605556,,,,,,,0,,0,0,1
BOWIE                         ,33.54,-97.85,,,,,,0,,,0,0,1
Brackettville 0.8 S,29.305788,100.412149,0,0,0,0,0,0,0,0,0,0,1
Brackettville 13.8 W,29.311897,100.638894,0,0,0,0,0,,0,,0,0,1
Brackettville 5.1 W,29.32038,100.49432,0,0,0,0,0,0,0,0,0,0,1
BRADY                         ,31.14,-99.33,0.83,0,0.04,0.04,,,,,0.91,0.91,1
BRADY                    8 SSE,31,-99.27,1.97,0.04,0.05,0.29,,,,,2.35,2.35,1
Brady 8.1 NNE,31.24673,99.34117,0.2,0,0.59,0.08,0,0,0,0,0.87,0.87,1
Brays Bayou @ Bellaire Boulevard,29.70391,-95.566081,0.92,7.96,13.24,7.44,1.36,0,0,,30.92,30.92,1
Brays Bayou @ Belle Park Drive,29.709284,-95.5825,1.28,10.2,15.56,5.96,0.96,0,0,,33.96,33.96,1
Brays Bayou @ Beltway 8,29.695066,-95.556599,1.24,10.08,14.84,7.52,1.28,0,0,,34.96,34.96,1
Brays Bayou @ Gessner Road,29.672371,-95.527994,1.48,9.36,15.32,7.48,1.56,0,0,,35.2,35.2,1
Brays Bayou @ Lawndale Street,29.722625,-95.305332,0.96,8.48,14.28,8.8,3.2,0,0,,35.72,35.72,1
Brays Bayou @ Rice Avenue,29.678605,-95.467271,1.44,8.28,14.72,8.08,1.88,0,0,,34.4,34.4,1
Brays Bayou @ SH 6,29.715071,-95.643933,1.16,7.92,15.12,6,1.04,0,0,,31.24,31.24,1
Brays Bayou @ South Main Street,29.697018,-95.412138,0.96,4.72,13.36,8,2.44,0,0,,29.48,29.48,1
Brays Bayou @ Stella Link Road,29.690953,-95.439914,1.36,4.88,13.12,8.52,2.44,0,0,,30.32,30.32,1
Brenham,30.15,-96.4,,,,,,,,,16.94,0,0
BRENHAM                       ,30.17,-96.4,0,2.55,5.6,7.48,1.27,0.04,0,,16.94,16.94,1
Brenham 0.7 E,30.158889,96.384869,0,2.41,5.42,8.21,1.21,0.02,0,0,17.27,17.27,1
Brenham 1.4 NNW,30.179381,96.403992,0.16,2.52,6.8,8.5,1.1,,,,19.08,19.08,1
Brenham 7.1 W,30.17235,96.51491,,3,8.63,8.5,0.51,,,,20.64,20.64,1
Brenham 8.0 E,30.1572,96.2626,0.17,2.33,7.64,7.84,1.01,0,0,0,18.99,18.99,1
Brenham 8.2 WSW,30.0963,96.5126,0.08,3.24,7.42,9.57,5.1,0,0,0,25.41,25.41,1
Brenham 8.7 NW,30.2454,96.5051,0.01,1.58,6.55,6.8,0.44,0,0,0,15.38,15.38,1
Brenham 9.9 N,30.30139,96.421313,0,1.68,8.4,8.06,0.66,0,0,0,18.8,18.8,1
Briar Branch @ Campbell Road,29.78962,-95.5139,0.88,6,15.44,6.4,1.88,0,0,,30.6,30.6,1
Briarcliff 0.1 WSW,30.405403,98.046997,,1,1.97,0.63,0.02,0,,,3.62,3.62,1
Briarcliff 3 SW,30.39,-98.07,,,,,,,,,3.71,0,0
Briarcliff 4.0 S,30.347923,98.045211,0.12,,1.89,0.87,0,0,0,0,2.88,2.88,1
Brickhouse Gully @ Costa Rica Road,29.827777,-95.4691666,0.68,5.52,16.2,6.6,2.08,0,0,,31.08,31.08,1
Bridge City 1.3 NW,30.0428,93.8675,1.09,0.71,3.71,10.61,4.61,23.82,,,44.55,44.55,1
BRIDGEPORT                    ,33.21,-97.77,,,0,0,0,0,,,0,0,1
Briscoe 8.1 NNE,35.69277778,100.235,0,0,0,0.05,0,0,0,0,0.05,0.05,1
Broaddus 15.3 SE,31.1342,94.1062,0.32,0,1.75,4.05,2.86,5.67,4.36,0,19.01,19.01,1
Bronte 5.0 NNE,31.95475,100.27253,0.71,0.41,0.27,,,,,,1.39,1.39,1
Bronte 8.2 S,31.7681,100.2758,,,0.22,,,,,,0.22,0.22,1
BROOKSHIRE               5 WSW,29.77,-96.04,0,,,,,,,,0,0,1
Brookshire 5 W,29.77,-96.04,,,,,,,,,27.16,0,0
Brookshire 6.9 NNW,29.8728923499584,96.0029789060354,0.1,6.8,7.35,16.75,,0.13,0,0,31.13,31.13,1
Brookshire Katy Drainage District @ Morrison Road,29.888456,-95.940939,0.72,6.24,16.48,3.32,0.28,0,0,,27.04,27.04,1
BROWN WOOD                    ,31.68,-98.96,0.29,0,0.46,0.28,0,,,,1.03,1.03,1
BROWNSVILLE                   ,25.91,-97.43,0.08,0,0.08,0,,,,,0.16,0.16,1
Brownsville 0.1 SSE,25.92316667,97.48133333,,0.08,0.12,,,,,,0.2,0.20,1
Brownsville 0.4 WSW,25.923031,97.488274,,0.8,,,,0,,,0.8,0.8,1
Brownsville 1.5 SW,25.9090393781662,97.4980334937572,,,,,0,0,0,0,0,0,1
Brownsville 1.5 WNW,25.929928,97.505535,0.11,0.02,0.26,0,0,0,0,0,0.39,0.39,1
Brownsville 1.7 NNE,25.9474964141846,97.4711074829102,0.15,0,0.23,0,,0,0,0,0.38,0.38,1
Brownsville 12.6 E,25.947773,97.281538,0.35,0.1,0,0,0,0,0,0,0.45,0.45,1
Brownsville 2 W,25.92,-97.48,,0.18,,,,,,,0.18,0.18,1
Brownsville 2.2 WNW,25.940583,97.513815,0.15,0.02,0.38,0,0,0,0,0,0.55,0.55,1
Brownsville 3.5 N,25.9751,97.4919,0.17,0.02,0.13,0,0,0,0,0,0.32,0.32,1
Brownsville 4.1 ENE,25.954693,97.425658,0.01,0.02,0.12,,,,,,0.15,0.15,1
Brownsville 4.3 NW,25.970664,97.528519,0.17,0.03,0.17,0,,,0,0,0.37,0.37,1
Brownsville 6.4 WNW,25.9596786499023,97.576789855957,0.24,0.01,0.09,0,0,0,0,0,0.34,0.34,1
BROWNWOOD                8 N,31.84,-99,0.3,0,0.06,0.04,0,,,,0.4,0.4,1
Brownwood 13.7 NW,31.8319759368896,99.1686172485352,0.03,0.01,0.49,0.38,0,0,0,0,0.91,0.91,1
Brownwood 2.7 SSE,31.68605,98.95241,,,,,,,,0,0,0,1
Brownwood 6.7 ENE,31.755469,98.869718,0,0.2,0.52,0.27,0,0,0,0,0.99,0.99,1
Bruceville-Eddy 1.9 W,31.306533,97.280045,0.31,0.2,1.11,0.4,0.01,0,0,0,2.03,2.03,1
Bruceville-Eddy 2.0 ESE,31.292551,97.218407,1.15,,1.24,0.43,,,,,2.82,2.82,1
Bruceville-Eddy 4.7 SSE,31.2402161210775,97.2301304340363,0.1,,,,,,,,0.1,0.1,1
Brushy Creek,30.51,-97.74,,,,,,,,,2.35,0,0
Brushy Creek 2 NE,30.53,-97.72,,,,,,,,,2.34,0,0
Brushy Creek 2 SW,30.49,-97.76,,,,,,,,,4.88,0,0
Brushy Creek 2.4 SW,30.485942,97.764397,0.05,1.23,4.25,0.96,0.02,0,,0,6.51,6.51,1
Bryan 2.5 SSE,30.6337738037109,96.3509826660156,0.11,1.11,7.37,7.84,0.05,0.02,0,0,16.5,16.50,1
Bryan 2.6 SSE,30.636542,96.342345,0.03,,,7,0.04,,,,7.07,7.07,1
Bryan 3.5 NNW,30.713755,96.3901489,0.09,0.78,7.5,7.78,0.06,0,0,,16.21,16.21,1
Bryan 3.8 SSW,30.6216,96.399,0.09,0.65,7.88,7.45,0.18,0,0,0,16.25,16.25,1
Bryan 7.1 N,30.771412,96.373385,,,,,,,,0,0,0,1
BUCHANAN DAM                  ,30.77,-98.45,0.01,0,0.13,0.14,0,,,,0.28,0.28,1
Buchanan Dam 2 SSW,30.71,-98.44,,,,,,,,,0.24,0,0
Buchanan Dam 2.2 SSW,30.7716884613037,98.4561309814453,0,0.02,0.2,0.15,0,0,0,0,0.37,0.37,1
Buchanan Dam 3 WNW,30.75,-98.46,,,,,,,,,0.27,0,0
Buchanan Dam 3.6 SSW,30.752592,98.463931,0,0.01,0.14,0.11,0,0,0,0,0.26,0.26,1
Buchanan Dam 5 ENE,30.75,-98.37,,,,,,,,,0.77,0,0
Buchanan Dam 7.4 NNE,30.8474,98.363,0,0,0.45,0.35,0,0,0,0,0.8,0.8,1
BUDA                          ,30.09,-97.85,0,1.27,8.31,2.08,0.02,0,,,11.68,11.68,1
Buda 0.7 SW,30.078533962369,97.8480812162161,0,2.63,6.77,2.14,0.02,0,0,0,11.56,11.56,1
Buda 1 WNW,30.09,-97.86,,,,,,,,,6.91,0,0
Buda 1.8 W,30.0906,97.8692,,1.16,6.17,1.43,,,,,8.76,8.76,1
Buda 2.5 NW,30.11517,97.86399,,2.5,5.34,1.64,,,,,9.48,9.48,1
Buda 8.6 E,30.06187,97.699208,0.27,2.03,7.23,2.72,0.01,0,0,0,12.26,12.26,1
Buffalo Bayou @ Dairy Ashford Road,29.761605,-95.606088,1.08,9.8,17.64,5.68,1.36,0,0,,35.56,35.56,1
Buffalo Bayou @ Greenbusch Road,29.743106,-95.807036,1.24,8.56,17.96,4.68,0.92,0,0,,33.36,33.36,1
Buffalo Bayou @ Peek Road,29.722212,-95.767445,1.2,6.76,17.52,5.92,1.16,0,0,,32.56,32.56,1
Buffalo Bayou @ San Felipe Drive,29.751207,-95.505614,0.88,6.08,14.24,7.04,1.72,0,0,,29.96,29.96,1
Buffalo Bayou @ Shepherd Drive,29.760145,-95.408655,0.88,7.36,15.96,6.76,2.28,0,0,,33.24,33.24,1
Buffalo Bayou @ Turning Basin,29.749171,-95.291331,0.84,8.76,15.84,6.88,2.56,0,0,,34.88,34.88,1
Buffalo Bayou @ US 90,29.785685,-95.827024,0.84,6.12,16.68,4.48,0.96,0,0,,29.08,29.08,1
Buffalo Bayou @ West Beltway 8,29.762026,-95.557476,1.16,10.08,17,7.24,1.6,0,0,,37.08,37.08,1
Bulverde 3.3 NE,29.7712650299072,98.4081115722656,,0.6,2.6,0.57,,,,,3.77,3.77,1
Bulverde 4 NNE,29.79,-98.44,,,,,,,,,3.44,0,0
Bulverde 4.2 ENE,29.756944,98.385556,0.35,0.42,3.3,0.66,0,0,0,0,4.73,4.73,1
Buna 1.4 N,30.464748,93.963012,0.05,0.06,2.53,5.98,3.19,14.1,2.46,,28.37,28.37,1
Friendswood,29.7451,-95.5666,,,,,,,,,54,0,0
Bunker Hill Village 3.6 NNW,29.813836,95.550465,0,2.38,11.2,8.27,6.51,0.55,0.02,0,28.93,28.93,1
Bunker Hill Village 4.4 WSW,29.746786,95.601494,0.09,3.45,13.01,9.07,9.3,0.28,,,35.2,35.2,1
BURKETT                       ,31.99,-99.22,,0.96,,,,,,,0.96,0.96,1
Burkeville 11.2 NNE,31.1510306596756,93.5992757230997,0.42,0,0.74,4.5,3.14,5.5,7.47,0,21.77,21.77,1
Burleson 1.1 WNW,32.541,97.3458,0.01,0,0.04,0.36,0,0,0,0,0.41,0.41,1
BURNET                        ,30.83,-98.26,0,0.03,0.81,0.34,0,,,,1.18,1.18,1
BURNET                        ,30.74,-98.24,0.33,0,1,0.49,,,,,1.82,1.82,1
BURNET                        ,30.74,-98.23,0.07,0.04,1.01,0.42,0,,,,1.54,1.54,1
BURNET                   1 WSW,30.76,-98.29,0.08,0,0.96,0.44,0,,,,1.48,1.48,1
BURNET                   6 SSE,30.67,-98.21,0,0.01,1.03,0.56,0,,,,1.6,1.6,1
BURNET                   6 WSW,30.72,-98.31,0.27,0,0.57,0.27,0,,,,1.11,1.11,1
Burnet 1.3 NE,30.772372,98.212456,0.03,0.02,1.08,0.53,0.01,0,0,0,1.67,1.67,1
Burnet 1.8 ENE,30.7711,98.2027,0,,1.24,0.5,,,,,1.74,1.74,1
Burnet 1.9 SE,30.74,98.21,0.08,0.3,,,0,0,0,0,0.38,0.38,1
Burnet 10.7 NW,30.85,98.3773,,0,0.37,0.31,,,,,0.68,0.68,1
Burnet 2.8 WNW,30.7726158946753,98.2747697085142,0.02,0.02,0.76,0.33,0,0,0,0,1.13,1.13,1
Burnet 4.2 W,30.768049,98.299832,0.07,0.04,0.47,0.82,0,0,0,0,1.4,1.4,1
Burnet 5.4 NNW,30.8271,98.2778,,,0.83,0.28,,,,,1.11,1.11,1
Burnet 5.7 WSW,30.740084,98.323013,0.38,0,0.62,0.23,0,0,,0,1.23,1.23,1
Burnet 6.1 WNW,30.782562,98.330148,,,,,0,0,0,0,0,0,1
Burnet 8.3 WSW,30.7041664123535,98.3533325195313,0,0,0.51,0,0,0,0,0,0.51,0.51,1
Burnet 8.4 WNW,30.828002,98.346963,0,,0.34,0.38,0,,0,0,0.72,0.72,1
Burnet 8.5 NW,30.83438,98.34576,0,0,0.49,0.23,,,,0,0.72,0.72,1
Burnet 9.9 W,30.752314,98.396445,,,0.24,0.17,0,,,,0.41,0.41,1
Burton 4.4 ENE,30.212706,96.534766,0,,11.73,9.4,0.44,0,0,0,21.57,21.57,1
Burton 5.3 NNE,30.245277,96.553178,0.19,,,8.16,0.13,,,,8.48,8.48,1
Burton 6.9 SSW,30.081667,96.623806,0.02,4.13,6.9,9.92,0.3,0,0,0,21.27,21.27,1
Calaveras Lake 5 ENE,29.27,-98.25,,,,,,,,,2.01,0,0
CALLIHAM                 1 W,28.45,-98.35,0.28,,,0.08,0,,,,0.36,0.36,1
Cameron 1.5 NW,30.87223,96.99593,0,0.54,3.42,2.81,0.03,0,0,0,6.8,6.8,1
Cameron 10.3 ENE,30.90268333,96.8114,,0.84,3.33,3.63,0.29,0,0,0,8.09,8.09,1
Cameron 8.2 SE,30.780074,96.872036,0,0.6,6.17,2.73,0.19,0.02,0,0,9.71,9.71,1
Camp Swift 1 NW,30.21,-97.31,,,,,,,,,13.14,0,0
Camp Swift 5 NNW,30.26,-97.3,,,,,,,,,12.18,0,0
Camp Wood 5.02 SSE,29.597551,99.998945,0.22,0,0,0.05,0,0,0,0,0.27,0.27,1
Camp Wood 6.5 NE,29.736417,99.936306,0.32,0.01,0,0.09,,,,,0.42,0.42,1
Camp Wood 6.8 NE,29.735833,99.928696,0.28,0.02,0.03,0.13,,,,,0.46,0.46,1
Camp Wood 7.3 NE,29.74788,99.93082,0.45,0.03,0,0.05,,,,,0.53,0.53,1
Cane Island Branch @ Clay Road,29.831083,-95.836824,0.8,6.76,20.2,4.12,0.92,0,0,,32.8,32.8,1
Canton 4.6 SSW,32.48625,95.89277,0,0.07,0.1,0.1,0.04,0,0,0,0.31,0.31,1
Canton 6.1 W,32.548405,95.968627,0,0,0.09,0.02,0,0,0,0,0.11,0.11,1
Canton 8.7 W,32.523453,96.011225,,,,0.15,,,,,0.15,0.15,1
Canutillo 1.2 W,31.92834,106.62667,,0.25,,,,,,,0.25,0.25,1
Canyon 0.2 SSW,34.97862,101.92375,0,0,0,0,0,0,0,0,0,0,1
Canyon 0.9 NNW,34.9923629760742,101.930015563965,0.13,,0.03,0.02,,,,,0.18,0.18,1
Canyon 0.9 SSE,34.968316,101.916803,0.17,0.05,,0.03,,,,,0.25,0.25,1
Canyon 1.9 W,34.980284,101.954975,0.19,0.03,0,0.02,0,0,0,0,0.24,0.24,1
Canyon 1.9 WNW,34.986691,101.955017,0.14,0,0,,,,,,0.14,0.14,1
Canyon Lake 0.4 NE,29.8791,98.257337,0.53,0.65,3.48,0.49,0,0,0,0,5.15,5.15,1
Canyon Lake 0.9 NNE,29.886828,98.25563,0.35,0.57,2.52,0.33,0.02,0,0,0,3.79,3.79,1
Canyon Lake 1.5 WSW,29.8684,98.2856,0.24,0.59,3.16,0.53,0,0,0,0,4.52,4.52,1
Canyon Lake 1.7 WSW,29.870167,98.28933,0.22,0.59,3.34,0.54,0,0,0,0,4.69,4.69,1
Canyon Lake 1.8 W,29.8706169128418,98.2917556762695,0.24,0.67,3.02,0.49,,,,,4.42,4.42,1
Canyon Lake 2.3 ESE,29.863989,98.225265,1.07,0.46,1.78,0.31,0,0,0,0,3.62,3.62,1
Canyon Lake 2.3 SSE,29.84515,98.24418333,0.13,0.49,4.35,0.61,,,,,5.58,5.58,1
Canyon Lake 2.5 W,29.873972,98.303825,0.22,0.59,2.81,0.55,0,0,0,0,4.17,4.17,1
Canyon Lake 2.8 N,29.914954,98.264428,0.17,0.49,2.04,0.44,0,0,,0,3.14,3.14,1
Canyon Lake 3.2 ESE,29.85,98.21666667,0.64,0.33,1.08,0.48,0.02,0,0,0,2.55,2.55,1
Canyon Lake 3.3 SW,29.84008,98.29953,0.07,0.67,3.29,0.59,0,0,0,0,4.62,4.62,1
Canyon Lake 4.1 E,29.8801177,98.1943941,1.61,0.5,4.75,0.84,0,0,0,0,7.7,7.7,1
Canyon Lake 4.3 NNW,29.92887,98.29708,0.33,0.85,3.63,0.6,0,0,0,0,5.41,5.41,1
Canyon Lake 5.3 SW,29.831839,98.335817,0.37,0.78,3.25,0.82,,,,,5.22,5.22,1
Canyon Lake 5.7 N,29.958114,98.266488,0.46,,,0.66,,,,,1.12,1.12,1
Canyon Lake 7.2 ESE,29.837639,98.149427,0.47,0.93,4.64,0.72,0,0,0,0,6.76,6.76,1
Canyon Lake 7.3 E,29.866826,98.141573,1.67,0.79,5.65,0,,0,0,0,8.11,8.11,1
Canyon Lake 8.1 NW,29.94537,98.370583,0.59,0.51,2.85,0.58,0,0,0,0,4.53,4.53,1
Canyon Lake Dam 2 E,29.87,-98.09,,,,,,,,,4.43,0,0
Canyon Lake Dam 2 ESE,29.86,-98.1,,,,,,,,,5.82,0,0
Canyon Weather/Comal County,,,,,,,,,,,6.62,0,0
CARLOS                   3 NE,30.63,-96.03,,,6.04,,,,,,6.04,6.04,1
Carlsbad 2.4 WNW,31.620526,100.6798228,0.02,,0.07,,,,,,0.09,0.09,1
Carmine,30.15,-96.69,,,,,,,,,25.17,0,0
CARMINE                  1 SSW,30.14,-96.69,0,4.05,10.24,10.97,0,0,,,25.26,25.26,1
Carmine 3.1 WNW,30.15944444,96.73944444,0,3.93,9.09,9.42,0.54,0,0,0,22.98,22.98,1
Carpenters Bayou @ I-10,29.771535,-95.149022,0.72,6.72,18.24,8.84,4.92,0,0,,39.44,39.44,1
Carpenters Bayou @ US 90,29.838598,-95.160484,0.56,6.28,17.92,6.76,4.12,0.04,0,,35.68,35.68,1
Carpenters Bayou @ Wallisville Road,29.809924,-95.158445,0.68,5.96,18.4,7.92,4.48,0,0,,37.44,37.44,1
CARRIZO SPRINGS               ,28.49,-99.87,0,0,0,0,,,,,0,0,1
Carrizo Springs 3.0 NNE,28.563267,99.835363,0,0,0,0,0,0,0,0,0,0,1
Carrollton 2.0 NNE,33.0153274536133,96.8857498168945,,,0.05,0.44,,,,,0.49,0.49,1
Carrollton 2.8 SSE,32.952006,96.876272,0,0,0.05,0.17,0.03,0,0,0,0.25,0.25,1
Carta Valley 4.0 SSE,29.73257,100.656805,,,,0,0,0,0,0,0,0,1
Carta Valley 8 SE,29.69,-100.57,,,,,,,,,0.08,0,0
CARTHAGE                      ,32.14,-94.35,,,,0.71,0.01,0.57,1.53,0,2.82,2.82,1
CASTELL                       ,30.72,-98.82,0.02,0,0.13,0.12,0,,,,0.27,0.27,1
CASTELL                  4 SSE,30.64,-98.94,0,0,0.25,0.27,0,,,,0.52,0.52,1
Castell 10 SW,30.57,-99.09,,,,,,,,,1.52,0,0
Castell 3 WSW,30.69,-98.99,,,,,,,,,0.39,0,0
Castell 8 SW,30.6,-99.06,,,,,,,,,1.26,0,0
Castle Hills 0.7 NW,29.5301338806701,98.5275504738092,1.13,0.41,1.07,0.52,,,,,3.13,3.13,1
Castle Hills 1.9 NE,29.540395,98.494724,0.38,0.64,1.09,0.15,0,0,0,0,2.26,2.26,1
Castroville 4.0 SW,29.303414,98.914581,,0.07,0.17,,,,,,0.24,0.24,1
Castroville 7.0 NE,29.430345,98.804456,0,0.09,0.26,0.01,0,0,0,0,0.36,0.36,1
Castroville 7.0 NNE,29.434984,98.814658,0,0.08,0.22,0.01,0,0,0,0,0.31,0.31,1
Cat Spring 1.4 N,29.866212,96.326406,,4.91,6.08,10.32,1.06,,,,22.37,22.37,1
Cat Spring 3.8 N,29.881,96.331,0.12,5,6.41,10.8,1,0,0,0,23.33,23.33,1
Cattle Walk @ Ditch 550,29.76583,-94.09777,1.22,2.36,5.04,7.09,19.96,0.63,0,,36.3,36.30,1
Cedar Bayou @ SH 146,29.769851,-94.916822,0.8,3.52,20.92,5.92,5.32,0,0,,36.48,36.48,1
Cedar Bayou @ US 90,29.97209,-94.985937,0.92,4.92,21.56,5.48,5,0,0,,37.88,37.88,1
Cedar Creek 1.0 ENE,30.09343333,97.48565,0.75,1.87,9.4,2.67,0.14,0,0,0,14.83,14.83,1
Cedar Creek 3 W,30.09,-97.55,,,,,,,,,14.38,0,0
Cedar Creek 5.3 SW,30.0235595703125,97.5483093261719,0.54,,,,,0,0,0,0.54,0.54,1
Cedar Creek 5.6 ESE,30.045482,97.420589,0.86,2.17,11.6,3.11,0.16,0,0,0,17.9,17.9,1
CEDAR HILL               3 NW,32.61,-96.99,,,0.04,1.02,0.09,0.01,,,1.16,1.16,1
Cedar Hill 1.8 S,32.55479,96.957414,0.01,0.23,0.08,0.56,0,0,0,0,0.88,0.88,1
Cedar Hill 2.4 NNW,32.6136589050293,96.9712448120117,,,,0.94,0.1,,,0,1.04,1.04,1
Cedar Park,30.51,-97.82,,,,,,,,,4.28,0,0
Cedar Park,30.51,-97.82,,,,,,,,,3.73,0,0
Cedar Park 1 SSE,30.49,-97.81,,,,,,,,,4.86,0,0
Cedar Park 1 SSW,30.49,-97.83,,,,,,,,,4.43,0,0
Cedar Park 1.0 ESE,30.508214,97.816292,0.27,1.25,3.18,0.96,,,,,5.66,5.66,1
Cedar Park 1.3 S,30.49535,97.83289,0.27,1.93,3.05,0.09,0,,,,5.34,5.34,1
Cedar Park 2.4 WNW,30.5277042388916,97.8677215576172,0.06,0.77,3.32,0.89,0.03,0,,,5.07,5.07,1
Cedar Park 2.7 SSW,30.4779,97.8474,0.37,1.9,3.57,0.93,0.02,0,0,0,6.79,6.79,1
Cedar Park 3 SW,30.48,-97.85,,,,,,,,,4.75,0,0
Cedar Park 3 SW,30.48,-97.85,,,,,,,,,6.03,0,0
Cedar Park 4.6 E,30.5191,97.7529,,0.73,3.5,0.85,,,,,5.08,5.08,1
CEDAR POINT                   ,30.87,-98.45,0,0.06,0.11,0.12,0,,,,0.29,0.29,1
Celina 4.4 WSW,33.295462,96.854964,0.01,0,0.04,0,0,0,0,0,0.05,0.05,1
CENTER                        ,31.81,-94.16,0,0,0.25,1.44,,1.52,2.74,0,5.95,5.95,1
Center 0.6 NW,31.799455,94.185027,,,0.26,1.49,0.82,1.61,2.44,,6.62,6.62,1
Center Point 0.5 SE,29.9293632507324,99.0305099487305,0.11,0.04,0.46,0,0,0,0,0,0.61,0.61,1
Center Point 2.2 NNE,29.96454,99.02338,0,0,0.57,0,0,0,0,0,0.57,0.57,1
Center Point 2.4 ESE,29.931675,98.999406,,0.27,0.27,0,0,0,0,0,0.54,0.54,1
CENTERVILLE                   ,31.26,-95.97,0,,2.2,2,,0,0,,4.2,4.2,1
Central Gardens 5 NW,30.04,-94.08,,,,,,,,,46.42,0,0
CHAPMAN RANCH                 ,27.58,-97.45,0.94,,,0.05,0.02,0,,,1.01,1.01,1
Chappell Hill 1.0 NW,30.15644,96.26298,0.19,2.33,7.67,7.35,1,0,0,0,18.54,18.54,1
Chappell Hill 1.8 N,30.168968,96.253409,0.63,2.35,8.59,8.58,0.98,0,,,21.13,21.13,1
Charlotte 0.6 SW,28.854149,98.7072,0,0.2,0.5,0,0,0,0,0,0.7,0.7,1
CHEAPSIDE                     ,29.31,-97.35,0,,8.54,3.52,0.05,0,,,12.11,12.11,1
CHEROKEE                 2 NNW,31.02,-98.72,0,0,0.12,0.12,0,,,,0.24,0.24,1
CHEROKEE                 4 E,30.98,-98.64,0,0,0.16,0.19,0.01,,,,0.36,0.36,1
CHEROKEE                 4 SSE,30.92,-98.68,0,0,0.14,0.13,0,,,,0.27,0.27,1
CHEROKEE                 6 WSW,30.95,-98.81,0,0,0.16,0.26,0,,,,0.42,0.42,1
CHEROKEE                 8 NNE,31.06,-98.6,0,0,0.09,0.27,0.01,,,,0.37,0.37,1
CHEROKEE                10 NW,31.03,-98.58,0,0,0.13,0.26,0.01,,,,0.4,0.4,1
CHEROKEE                10 WNW,31,-98.87,0.08,0,0.21,0.4,0.01,,,,0.7,0.7,1
Cherokee Fema Laydown Yard,30.086944,-94.1345,0.4,2.6,10.86,6.81,18.07,5.91,0,,44.65,44.65,1
Chigger Creek @ Windsong Lane,29.495189,-95.223522,3.56,9.88,9.56,11.04,4.32,0,0,,38.36,38.36,1
Childress 2.3 E,34.4233847,100.2085908,1.49,0,,,,,,,1.49,1.49,1
Childress 6.0 E,34.416352,100.143698,0.66,,0,0,0,0,0,,0.66,0.66,1
China 17 SSE,29.82,-94.23,,,,,,,,,40.55,0,0
China 2 NE,30.07,-94.31,,,,,,,,,39.8,0,0
China 2 S,30.02,-94.33,,,,,,,,,47.44,0,0
China 5 ESE,30.02,-94.26,,,,,,,,,44.49,0,0
China Grove 3 E,29.39,-98.3,,,,,,,,,2.61,0,0
China Grove 4.6 WSW,29.378791,98.421654,0.05,0.32,1.37,0.32,0,0,0,0,2.06,2.06,1
China Spring 2.9 NNW,31.691308,97.328203,0.77,0,0.3,,,,,,1.07,1.07,1
China Spring 3.3 WNW,31.667707,97.361787,1.06,0.01,0.25,0.05,0.01,,0,0,1.38,1.38,1
Choke Canyon Dam North Side,28.4673,98.2462,0.88,2.38,0.85,0.05,0,0,0,0,4.16,4.16,1
Cibolo 2.4 NNW,29.6036,98.2533,,,,,,,,0,0,0,1
Cibolo 3.9 N,29.6297,98.22047,,0.53,1.54,0.26,0.01,0,0,,2.34,2.34,1
Circle D-KC Estates 3 WSW,30.15,-97.27,,,,,,,,,18.76,0,0
Circle D-KC Estates 3.6 ESE,30.139958,97.175324,0.16,4.42,13.44,5.49,0,0,0,0,23.51,23.51,1
Cisco 10.5 NW,32.48363,99.11608,1.84,0.08,0.05,0.02,0,0,0,0,1.99,1.99,1
Cisco 4.1 N,32.44384,98.986634,1.61,0.11,0.12,0.06,0,0,0,0,1.9,1.9,1
Cistern 4 SE/Fayette County,29.79,-97.19,,,,,,,,,24.25,0,0
Clam Lake Road @ Ten Mile Cut Bridge,29.69167,-94.08056,1.73,1.93,3.94,4.52,15.56,0.31,0,,27.99,27.99,1
CLARKSVILLE                   ,33.62,-95.17,,,0,0,0,0,0,,0,0,1
Clear Creek @ Bay Area Boulevard,29.497498,-95.159806,2.12,12.72,14.08,11.76,3.96,0,0,,44.64,44.64,1
Clear Creek @ Country Club Drive,29.556148,-95.252032,1.8,10,10.24,11.92,3.64,0,0,,37.6,37.6,1
Clear Creek @ FM 528,29.517555,-95.179061,1.84,12.44,14.52,11.16,3.36,0,0,,43.32,43.32,1
Clear Creek @ I-45,29.50796,-95.11741,2.12,11.84,18.96,10.84,4.36,0.08,0,,48.2,48.20,1
Clear Creek @ Mykawa Road,29.596694,-95.297345,1.76,9.04,10.96,9.24,3.56,0,0,,34.56,34.56,1
Clear Creek @ Nassau Bay,29.534116,-95.091224,0.8,7.04,18.8,7.8,2.56,0.04,0,,37.04,37.04,1
Clear Creek @ SH 288,29.585932,-95.385979,1.72,3.6,11.08,10.2,2.96,0,0,,29.56,29.56,1
Clear Lake  ,29.558803,-95.135354,1.57,11.15,17.85,13.42,4.15,,,,48.14,48.14,1
Clear Lake 2nd Outlet @ SH 146,29.554639,-95.025513,1.32,5.4,17.2,7.48,3.28,0,0,,34.68,34.68,1
Cleburne 1.5 S,32.32772,97.406193,2.05,0,0.12,0.9,,0,,,3.07,3.07,1
Cleburne 3.3 SW,32.316223,97.448036,1.5,,0.1,0.75,,,,,2.35,2.35,1
Cleburne 4.8 NNE,32.412228,97.370735,0.03,0,0.08,0.16,0,0,0,0,0.27,0.27,1
Cleburne 5.8 E,32.34,97.30696,0.21,0,0.09,0.48,0.4,0,,,1.18,1.18,1
Cleveland,30.3567,-95.0083,,,,,,,,,25.76,0,0
CLEVELAND                     ,30.36,-95.09,,,,14.9,,,,,14.9,14.9,1
Cleveland 0.9 SW,30.333624,95.088886,,,11.05,9.9,2.14,0.94,,,24.03,24.03,1
Cleveland 3.6 S,30.2928409576416,95.0819702148438,0,1,15.43,13.53,4.67,1.79,0,0,36.42,36.42,1
Cleveland 5.0 S,30.2721748352051,95.0687866210938,0.11,1.76,12.79,11.8,4.19,,,,30.65,30.65,1
CLICK                         ,30.55,-98.54,0.08,0.02,1.06,0.12,0,,,,1.28,1.28,1
Clifton 3.4 SSE,31.7342,97.563,1.35,0.19,0.1,0.11,,0,0,,1.75,1.75,1
Cloverleaf 1.7 W,29.785071,95.201477,0.03,1.32,17.98,10.6,8.29,1.7,0,0,39.92,39.92,1
Cloverleaf 2 SE,29.77,-95.15,,,,,,,,,38.9,0,0
Clyde 0.9 W,32.4036531,99.5135417,0.48,2.6,,,,,,,3.08,3.08,1
Clyde 4.4 SSW,32.340739,99.514448,0,0,0,,,,0,0,0,0,1
COLDSPRING               7 NE,30.67,-95.15,0,,,,,,,,0,0,1
Cole Creek @ Deihl Road,29.8511111,-95.48777777,0.76,5.76,16.36,6.92,2.2,0,0,,32,32,1
COLEMAN                       ,31.82,-99.42,,,,0.7,,,,,0.7,0.7,1
COLEMAN                  8 N,31.85,-99.57,1.17,0.49,0.15,0.02,,,,,1.83,1.83,1
COLEMAN                 26 SW,31.51,-99.66,0.02,0.06,0.27,0.23,,,,,0.58,0.58,1
COLLEGE STATION               ,30.59,-96.36,0,0.65,6.47,6.75,1.87,0,0,,15.74,15.74,1
College Station 0.1 WNW,30.601433,96.314464,,1,9,7,,,,,17,17,1
College Station 0.8 W,30.599356,96.325693,0,0.99,9.52,6.95,0.26,0,0,0,17.72,17.72,1
College Station 1.0 WNW,30.6041526794434,96.3283843994141,0,5.05,8.87,3.32,0.06,0,0,0,17.3,17.3,1
College Station 1.6 S,30.577365,96.31456,,2.98,,,,,,,2.98,2.98,1
College Station 1.7 NNW,30.6239643096924,96.3199081420898,0,0.75,6.54,4.74,0.24,0.02,,,12.29,12.29,1
College Station 2.0 SSE,30.572831,96.300178,,2.01,8.27,8.11,0.33,,,,18.72,18.72,1
College Station 4.5 SW,30.55955,96.37109,0,0.75,10.45,8.44,0.34,0,0,0,19.98,19.98,1
College Station 6.4 ENE,30.627683,96.208906,0.36,0.81,8.8,8.52,0.38,,,,18.87,18.87,1
COLLINSVILLE                  ,33.53,-96.81,,,0,0,0,0,,,0,0,1
Colmesneil 11.6 ESE,30.857075,94.236686,0,0.01,4.65,6.38,4.55,7.12,5.34,0,28.05,28.05,1
Colmesneil 2.3 SE,30.885468,94.395916,,,3.2,6.1,3.78,4.7,5.36,,23.14,23.14,1
COLUMBUS                      ,29.71,-96.54,0,6.28,6.68,7.9,1.35,0.01,,,22.22,22.22,1
Columbus 3.2 WSW,29.6801319122314,96.5975036621094,0.18,4.95,6.84,8.55,0.87,0,0,0,21.39,21.39,1
Comanche 12.2 NW,32.017262,98.759265,0,0.13,0.31,0.11,0,0,0,0,0.55,0.55,1
Comanche 7.0 ENE,31.93452,98.49263,0,0,0.13,0.5,0.12,0,0,0,0.75,0.75,1
Comfort,29.97,-98.9,,,,,,,,,0.6,0,0
COMFORT                       ,29.96,-98.89,,,,0.07,,,,,0.07,0.07,1
Comfort 0.9 WSW,29.968503,98.917164,0,0.18,0.52,0.07,0,0,0,0,0.77,0.77,1
Comfort 11.5 ENE,30.055222,98.735294,0.04,0.12,1.21,0.18,0,0,0,0,1.55,1.55,1
Comfort 2.6 N,30.009453,98.902276,0,0,0.7,0.14,,,,,0.84,0.84,1
Comfort 4.4 W,29.9617691040039,98.9755477905273,0,0.04,0.48,0.02,0,0,0,0,0.54,0.54,1
Comfort 7.0 ENE,30.0046,98.7915,0,0.24,0.74,0.12,,,,0,1.1,1.1,1
Comfort 8.0 NNE,30.076722,98.843264,,0.04,1.09,,,,,,1.13,1.13,1
Comfort 8.2 ENE,30.0120296478271,98.7744140625,,0.34,0.5,0,,0,0,,0.84,0.84,1
COMMERCE                      ,33.27,-95.92,,,0.02,0,0,0.14,0,,0.16,0.16,1
Commerce 6.1 NW,33.30304,95.973184,,0,0.02,0,0.02,0,,,0.04,0.04,1
Comstock 29.7 NW,30.06429,101.408333,0,0,0,0,0,0,0,0,0,0,1
Comstock 8.5 WNW (Seminole Canyon),29.700233,101.3133,,,,0.15,,,,,0.15,0.15,1
CONROE                   3 NE,30.35,-95.41,0,0.35,9.15,9.06,2.15,0.73,0,,21.44,21.44,1
Conroe 0.7 E,30.3227034956217,95.4595781117678,0,1.24,9.4,8.75,2.68,0.48,0,0,22.55,22.55,1
Conroe 2.1 SSW,30.294684,95.484215,0,3.17,10.75,5.93,10.61,0.76,0,0,31.22,31.22,1
Converse 1.1 ESE,29.505096,98.296234,,,2.51,0.41,,,,,2.92,2.92,1
Converse 1.2 SSE,29.497371673584,98.3044281005859,0,0.48,1.83,0.36,0,0,0,0,2.67,2.67,1
Converse 1.6 NW,29.5289268493652,98.3312149047852,0,0.33,2.48,0.48,0,0,0,0,3.29,3.29,1
Converse 1.8 S,29.4873,98.3157,0,0.36,1.77,0.43,0,0,0,0,2.56,2.56,1
COOPER                        ,33.36,-95.59,,,0.05,0,0,0.04,0.01,,0.1,0.1,1
COOPER                        ,33.47,-95.59,,,0.03,0,0,0.1,0,,0.13,0.13,1
Copper Canyon 1.1 SW,33.0869190394878,97.1118973195553,0,,,,0,0,0,0,0,0,1
Copperas Cove 0.8 ESE,31.11293,97.890036,,,0.9,0.66,,,,,1.56,1.56,1
CORDELE                  4 E,29.16,-96.55,,,0,,,,,,0,0,1
CORPUS CHRISTI                ,27.78,-97.51,0.61,,0.77,0.02,0.06,0,,,1.46,1.46,1
CORPUS CHRISTI                ,27.7,-97.28,0,,,,,0,,,0,0,1
CORPUS CHRISTI          12 W,27.78,-97.56,0.62,3.25,0.98,,0.11,,,,4.96,4.96,1
Corpus Christi 3.6 S,27.653903,97.289577,3.5,2.5,0.23,,,,,,6.23,6.23,1
Corpus Christi 4.8 SSE,27.7336578369141,97.3799057006836,0.39,,,,0,0,0,0,0.39,0.39,1
Corpus Christi 4.8 W,27.808389,97.470553,0.35,2.55,0.42,0.09,0.03,0,0,0,3.44,3.44,1
Corpus Christi 6.4 WSW,27.686549,97.395051,0.52,5.54,0.4,0.07,0,0,0,0,6.53,6.53,1
Corpus Christi 6.9 SE,27.625833,97.226111,0.24,,,,0.2,0,0,0,0.44,0.44,1
Corpus Christi 8.0 NW,27.773781,97.39901,,,,,0.02,0,0,0,0.02,0.02,1
Corpus Christi 8.3 SSE,27.59483,97.23969,,,,,0.01,0,0,0,0.01,0.01,1
Corpus Christi 9.0 SSE,27.590507,97.224739,,,,,0,0,0,0,0,0,1
Corpus Christi 9.1 NW,27.802861,97.393186,0,,,,,0,0,0,0,0,1
CORSICANA                     ,32.03,-96.4,,,0.32,0,,0,0,,0.32,0.32,1
CORSICANA                     ,32.09,-96.47,,,0.27,0.15,0,0,0,,0.42,0.42,1
Corsicana 4.3 WSW,32.059224,96.532937,0,0.05,0.3,0.03,0,0,0,0,0.38,0.38,1
Cottonwood 1.3 NE,32.471614,96.379008,0.05,0.01,0.03,0.02,0,0,0,0,0.11,0.11,1
Cottonwood Shores,30.56,-98.32,,,,,,,,,1.08,0,0
COTULLA                       ,28.46,-99.22,0,0,0.09,0,,,,,0.09,0.09,1
Cotulla 1.6 NE,28.45341,99.218382,0,0,0.11,0,0,0,0,0,0.11,0.11,1
Cotulla 9.7 NNE,28.5521,99.1535,,,0.28,,,,,,0.28,0.28,1
Coupland 5 WSW,30.44,-97.45,,,,,,,,,9.68,0,0
Coupland 6.5 ESE,30.4249506443739,97.2882176935673,,1.49,5.81,2.55,0.07,,,,9.92,9.92,1
Cowart Creek @ Baker Road,29.513234,-95.222531,2.56,9.64,8.36,11.56,4,0,0,,36.12,36.12,1
Craigen Road @ Taylors Bayou D-500,29.88083,-94.2572,0.71,3.46,8.35,6.85,25.19,2.72,0,,47.28,47.28,1
CRAWFORD                      ,31.53,-97.45,0.48,0,0.45,0.12,,0,,,1.05,1.05,1
Crawford 7.5 ENE,31.5800800323486,97.3242568969727,0.63,0.02,0.5,0.12,0,0,0,0,1.27,1.27,1
Creedmoor 1.5 NNW,30.112186,97.7493329,0.02,2.46,7.29,2.38,,,0.01,,12.16,12.16,1
Creedmoor 2.6 N,30.1286716461182,97.7359008789063,,2.19,7.22,2.35,,,,,11.76,11.76,1
CRESSON                       ,32.53,-97.62,,,,1,0.1,,,,1.1,1.1,1
CROCKETT                      ,31.3,-95.45,0.08,0,2.66,2.45,0.22,0.04,0,,5.45,5.45,1
Crockett 1.8 NNE,31.343774870038,95.4493944346905,0.03,0,2.2,2.16,0.19,0.03,0.01,0,4.62,4.62,1
CROSBY                   1 N,29.9,-95.08,,,,,8.44,,,,8.44,8.44,1
Crosby 2 W,29.91,-95.09,,,,,,,,,37.5,0,0
CROSBY TX/CEDAR BAYOU,29.97,-94.99,,,,,6.68,,,,6.68,6.68,1
CROSBYTON                     ,33.46,-101.09,,,,0,,,,,0,0,1
CROSBYTON                1 SW,33.59,-101.24,,,0.04,0,,,,,0.04,0.04,1
CROSS                    9 N,28.6,-98.57,0,0.39,0.61,0.05,0,,,,1.05,1.05,1
Cross 1.7 NNW,28.628463,98.552108,0,0.13,0.36,0,0,0,0,0,0.49,0.49,1
Cross Mountain 1.2 N,29.661978,98.662494,,0.24,1.04,0.36,,,,,1.64,1.64,1
Cross Mountain 2.1 N,29.67494,98.6535,0,0.25,0.98,0.02,0,0,0,0,1.25,1.25,1
Cross Plains 6.5 WNW,32.1631,99.267,0.12,0.01,0.06,,,0,0,0,0.19,0.19,1
CROWELL                  1 NNW,33.99,-99.73,,,,0,,,,,0,0,1
Crowell 10.5 E,33.9847679138184,99.5408477783203,0,0,0,0,0,0,0,0,0,0,1
Crowley 1.4 SSE,32.557986,97.3526,,,0.22,,,,,,0.22,0.22,1
Crystal Beach 3.7 ENE,29.47655,94.580271,1.07,,,,,,0,,1.07,1.07,1
Crystal City 0.5 ESE,28.68591,99.81848,0.15,0.17,0.02,0.02,0,,,0,0.36,0.36,1
Crystal City 0.5 S,28.68302,99.82557,0.16,0.15,0.04,,,,,,0.35,0.35,1
Crystal City 0.7 WNW,28.69428,99.835686,0.24,0.19,0.03,0,,,,0,0.46,0.46,1
Crystal City 9.2 E,28.6795,99.67383333,0,0.4,0,0.01,0,0,0,0,0.41,0.41,1
Cuero 0.4 SSW,29.089126,97.289198,,,14,,,,,,14,14,1
Cuero 1.2 SSE,29.07908,97.27862,,,,,,,0,,0,0,1
Cuero 2 W,29.09,-97.32,,,,,,,,,5.28,0,0
Cuero 2.5 ESE,29.07611111,97.25194444,0.07,4.9,3.49,2.5,0.13,0,0,0.01,11.1,11.1,1
Cuero 2.6 ESE,29.075024,97.24994,0.09,4.55,3.16,2.5,0.16,0,0,0.01,10.47,10.47,1
Cuero 2.7 ESE,29.07744,97.249158,0.07,4.9,3.73,2.25,0.2,0.01,0,0.01,11.17,11.17,1
Cuero 7.3 SSW,28.998659,97.340044,0.76,,5.97,1.24,0.08,0,0,0,8.05,8.05,1
Cuero 8.4 S,28.971972,97.292248,0.41,,10.52,1.43,,,0,,12.36,12.36,1
Cuero 8.4 S,28.9722,97.2788,,7.41,3.55,1.94,0.32,0,0,0,13.22,13.22,1
Cumby 1.5 N,33.155,95.843,0,0.02,,0,0,0,0,0,0.02,0.02,1
Cumby 5.6 SSE,33.055328,95.811596,0,0.03,0,0.02,0,0,0,0,0.05,0.05,1
CYPRESS                       ,30.02,-95.7,,,,,,0.36,,,0.36,0.36,1
Cypress 3.2 ESE,29.956425,95.646324,0.03,2.03,11.46,8.79,5.14,0.38,0,0,27.83,27.83,1
Cypress Creek @ Cypresswood Drive,30.031016,-95.330033,0.32,7.88,18.88,5,3.08,0,0,,35.16,35.16,1
Cypress Creek @ Eldridge Parkway N,29.966174,-95.607602,0.32,5.48,13.08,4.16,1.64,0,0,,24.68,24.68,1
Cypress Creek @ Huffmeister Road,29.961554,-95.631215,0.44,7.32,14.8,4.36,1.72,0,0,,28.64,28.64,1
Cypress Creek @ I-45,30.036344,-95.428694,0.28,7.72,16.44,4.56,2.08,0,0,,31.08,31.08,1
Cypress Creek @ Inverness Forest,30.034738,-95.409868,0.28,7.08,16.6,4.96,2.36,0,0,,31.28,31.28,1
Cypress Creek @ Katy-Hockley Road,29.950388,-95.808312,0.56,9.12,18.08,3.36,0.76,0,0,,31.88,31.88,1
Cypress Creek @ Kuykendahl Road,30.023755,-95.475879,0.24,7.36,15.84,4.28,1.84,0,0,,29.56,29.56,1
Cypress Creek @ SH 249,29.985654,-95.569924,0.36,6.6,16.04,4.4,1.6,0,0,,29,29,1
Cypress creek @ Sharp Road,29.921049,-95.840178,0.72,8.2,19.88,3.48,0.72,0,0,,33,33,1
Cypress Creek @ Stuebner-Airline Road,30.006281,-95.511647,0.32,7.2,15.96,4.88,1.84,0,0,,30.2,30.2,1
CYPRESS MILL                  ,30.38,-98.19,0.22,0.37,2.01,0.78,0,,,,3.38,3.38,1
CYPRESS MILL             7 SSE,30.28,-98.24,0.69,0.5,2.42,1.14,0,,,,4.75,4.75,1
Cypress Mill 3 ESE,30.37,-98.22,,,,,,,,,3.15,0,0
Cypress Mills 3.1 SE,30.34274,98.21875,0.36,0.47,2.73,0.73,0,,,,4.29,4.29,1
Daisetta NNW 8219,30.13,-96.52,,,,,,,,,30.58,0,0
Dale 4.4 SE,29.877278,97.518856,0.2,2.11,10.79,3.09,0.01,,,,16.2,16.2,1
Dale 7.3 SE,29.85765674579,97.4713924527168,0.67,1.89,10.81,4.2,0.06,0,0,0,17.63,17.63,1
Dale 7.6 N,30.03779,97.569559,0.29,1.93,9.59,2.76,0.1,0,0,0,14.67,14.67,1
Dalhart 8.1 W,36.083333,102.656667,0,0,0,0.13,0,0,0,0,0.13,0.13,1
DALLAS                        ,32.85,-96.85,,,0,0.74,0.32,0,,,1.06,1.06,1
DALLAS                        ,32.68,-96.87,,,0.03,0.15,0.02,,,,0.2,0.20,1
Dallas 1.0 NNE,32.807458,96.759065,0,0,0.02,0.45,0.16,0,0,0,0.63,0.63,1
Dallas 2.1 NNE,32.8210879,96.7491816,0,0,0,0.25,0.35,,,0,0.6,0.6,1
Dallas 2.7 WNW,32.815197,96.803515,0,0,0,0.2,0.04,0,0,0,0.24,0.24,1
Dallas 7.2 SW,32.709079,96.83827,0.05,0,0.06,0.04,0.03,0,0,0,0.18,0.18,1
DALLAS-FORT WORTH             ,32.9,-97.04,,,0.05,0.46,,0,,,0.51,0.51,1
DANEVANG                 1 W,29.05,-96.23,0.97,5.42,3.39,3.93,,0,0,,13.71,13.71,1
Danevang 2 W,29.05,-96.23,,,,,,,,,10.8,0,0
DAWSON                   5 NNE,31.96,-96.69,0,0,0.51,0.02,0,0,,,0.53,0.53,1
Dayton 0.2 E,30.050058,94.891414,0,2.45,25,12.27,6.36,3.15,0.08,0,49.31,49.31,1
Dayton 1.1 SE,30.040319,94.881529,0,2.6,,,,,0.08,0,2.68,2.68,1
DE KALB                 13 N,33.69,-94.69,,,0.01,0,0,0,0,,0.01,0.01,1
De Kalb 0.1 SSW,33.5058,94.6173,0,0,0.03,0,0,0,,0,0.03,0.03,1
De Leon 4.5 W,32.099809,98.61301,0.26,0.2,0.1,0.05,0,0,0,0,0.61,0.61,1
Dean-Walker Ranch,31.09139,105.19056,,,,,,,0,,0,0,1
DECATUR                       ,33.23,-97.6,,,,0,0,0,,,0,0,1
Decatur 4.1 W,33.223555,97.661972,1.61,,,,,,,,1.61,1.61,1
Decatur 8.4 S,33.112191,97.590808,1.69,0,0.23,,,,,,1.92,1.92,1
DEL RIO                       ,29.37,-100.92,,,0,0,,,,,0,0,1
DEL RIO                  2 NW,29.42,-100.91,,,0,0.01,,,,,0.01,0.01,1
Del Rio 5.7 NW,29.442051,100.953602,0.02,0,0,0.05,0,0,0,0,0.07,0.07,1
Del Rio 7.8 NNW,29.48166667,100.9413333,0,0,0,0.04,0,0,0,0,0.04,0.04,1
DEL VALLE                3 SW,30.18,-97.69,0.01,1.25,6.66,1.84,0.01,0,,,9.77,9.77,1
Dell City 1.4 SW,31.92313,105.21805,0.15,0,0,0,0,0,0,0,0.15,0.15,1
DENISON                       ,33.82,-96.57,,,0,0,0,0,,,0,0,1
Denison 0.8 ENE,33.760806,96.551384,1.07,0.01,,,,,0,0,1.08,1.08,1
Denison 4.9 SW,33.70655,96.624449,,0.27,0,0,0,,0,0,0.27,0.27,1
Dennis 1.4 SW,32.605525,97.945411,1.36,0.04,0.26,0.23,0,0,0,0,1.89,1.89,1
DENTON                        ,33.2,-97.2,,,0.02,0.01,,0,,,0.03,0.03,1
DENTON                   2 SE,33.2,-97.11,,,,0.04,,,,,0.04,0.04,1
DeSoto 2.2 ENE,32.613008,96.827942,0,0.01,0.04,1.48,0,0,0,0,1.53,1.53,1
Detroit 14.9 N,33.8767172,95.2495508,0,0,0,0,0.05,0,0,0,0.05,0.05,1
Devine 0.4 S,29.1399633,98.905306,0,0.22,0.11,0.04,0,0,0,0,0.37,0.37,1
Devine 4 WNW,29.16,-98.96,,,,,,,,,0.42,0,0
Devine 6.4 N,29.237532,98.922188,0.36,0.1,0.19,0.1,,,,,0.75,0.75,1
Devine 6.7 NNE,29.23756980896,98.8686218261719,0,0.15,0.21,0,0,0,0,0,0.36,0.36,1
D'Hanis 0.4 NNE,29.335667,99.280449,0,0.05,0.07,0,0,0,0,0,0.12,0.12,1
D'Hanis 2.4 NNE,29.3601,99.2611,0,0.12,0.07,0,0,0,0,0,0.19,0.19,1
D'Hanis 3.5 WSW,29.326117,99.337833,0,0.07,0.03,0,0,0,0,0,0.1,0.1,1
DIALVILLE                2 W,31.91,-95.26,,,0.65,,0,,,,0.65,0.65,1
Dickens 2.3 SW,33.6024254,100.8689361,0,0,0,0,0.02,0,0,0,0.02,0.02,1
Dickens 2.4 SW,33.5948021,100.8618673,0,0.23,0,0,0,0,0,0,0.23,0.23,1
Dickinson 0.5 NNE,29.4612,95.0643,0.62,3.38,,,,,,,4,4.00,1
Dickinson 1.4 W,29.45549,95.088872,,4.56,,,,,,,4.56,4.56,1
Dickinson NWS,29.47,-95.08,,,,,,,,,43.92,0,0
Dilley 0.4 SSW,28.663225,99.172441,0,0,0.39,0.02,0,0,0,0,0.41,0.41,1
Dilley 17.9 ESE,28.566667,98.9,,0.06,0.4,0,0,0,0,0,0.46,0.46,1
DIME BOX                      ,30.36,-96.85,,1.57,8.13,5.13,0.02,,,,14.85,14.85,1
Dodd City 3.0 NNW,33.614237,96.097774,0,0,0.03,0,0,0,0,0,0.03,0.03,1
Dodge 1.6 S,30.72284833,95.40165167,,0.31,7.68,11.65,2.25,0.91,0.06,,22.86,22.86,1
Driftwood 1 SW,30.1,-98.05,,,,,,,,,4.57,0,0
Driftwood 2 SE,30.1,-98.01,,,,,,,,,7.41,0,0
Driftwood 2.4 NNW,30.1574143767357,98.0393951386213,,1.48,4.44,0.98,,,,,6.9,6.90,1
Driftwood 2.42 SSW,30.090039,98.044865,0.05,6.16,1.44,,,,,,7.65,7.65,1
Driftwood 2.8 NNW,30.1632729438,98.0403184890747,0,0.74,5.07,1.08,0,0,0,0,6.89,6.89,1
Driftwood 4 W,30.12,-98.1,,,,,,,,,6.28,0,0
Driftwood 5 NE,30.17,-97.98,,,,,,,,,3.18,0,0
Driftwood 5.0 S,30.0506,98.0187,0.13,0.94,6.83,1.12,0.05,0,,0,9.07,9.07,1
Driftwood 6 NE,30.19,-97.96,,,,,,,,,5.43,0,0
Driftwood/Onion Creek,30.12,-98.03,,,,,,,,,7.27,0,0
DRIPPING SPRINGS         4 NNE,30.25,-98.06,0,0.91,4.13,1.24,0,,,,6.28,6.28,1
DRIPPING SPRINGS         5 SSW,30.12,-98.11,0,0.65,4.77,0.87,0,,,,6.29,6.29,1
DRIPPING SPRINGS         6 E,30.21,-97.98,,1.08,4.5,1.24,,,,,6.82,6.82,1
DRIPPING SPRINGS         8 W,30.2,-98.22,0.17,0.82,3.33,1.04,0,,,,5.36,5.36,1
Dripping Springs 0.6 SSE,30.180998,98.083565,0,0.99,5.07,1.25,0.01,0,0,0,7.32,7.32,1
Dripping Springs 1.3 E,30.18954,98.067405,,1.32,4.59,1.15,,,,,7.06,7.06,1
Dripping Springs 1.4 N,30.2088050842285,98.0849380493164,,1.18,3.9,1.16,0.02,,,,6.26,6.26,1
Dripping Springs 1.7 NW,30.20483,98.109273,0,0.75,4.56,1.23,0,0,,,6.54,6.54,1
Dripping Springs 3.3 NE,30.21855,98.04505,0,1.34,3.48,0.76,0,0,0,0,5.58,5.58,1
Dripping Springs 3.8 ESE,30.17649269104,98.0267562866211,0.02,0.93,5.51,1.51,0.02,0,0,0,7.99,7.99,1
Dripping Springs 4 NNE,30.25,-98.06,,,,,,,,,6.25,0,0
Dripping Springs 4.1 SSW,30.130576,98.106367,0,0.98,1.78,0.52,0.02,0,0,0,3.3,3.3,1
Dripping Springs 4.3 E,30.1974,98.016508,0.02,0.99,5.07,1.27,0,0,0,0,7.35,7.35,1
Dripping Springs 5 NNE,30.26,-98.05,,,,,,,,,5.92,0,0
Dripping Springs 5 SSW,30.12,-98.11,,,,,,,,,8.21,0,0
Dripping Springs 5.6 E,30.19425,97.99457,,,6.13,1.43,0.02,,,,7.58,7.58,1
Dripping Springs 6 N,30.31,-98.08,,,,,,,,,4.69,0,0
Dripping Springs 6.0 NNE,30.271702632308,98.060219809413,0.02,0.88,4.44,1.5,0,0,0,0,6.84,6.84,1
Dripping Springs 6.1 WNW,30.236125,98.174918,,1,3.35,1.29,,,,,5.64,5.64,1
Dripping Springs 6.2 WSW,30.16193,98.18764,,,,,0,0,0,0,0,0,1
Dripping Springs 6.3 E,30.180769,97.982898,0.08,1.44,3.5,1.02,0.02,0,0,0,6.06,6.06,1
Dripping Springs 6.4 N,30.280532,98.07109,0.32,1.15,3.09,1.22,0,0,0,0,5.78,5.78,1
Dripping Springs 7.2 E,30.200644,97.968977,0.09,1.03,5.17,1.22,0.02,,0,0,7.53,7.53,1
Dripping Springs 7.6 N,30.297855,98.09448,0.22,1,4.1,1.24,,,,,6.56,6.56,1
Dripping Springs 8.4 W,30.166634,98.226313,0.07,0.68,3.15,1.01,0,0,0,0,4.91,4.91,1
Dryden 17.7 NE,30.0688,101.8204,,,0,0,0,0,,,0,0,1
DUMONT                        ,33.81,-100.52,,,0,0,,,,,0,0,1
Duncanville 1.7 NNW,32.669782,96.921618,0,0,0.03,0.21,0.12,0,0,0,0.36,0.36,1
Duncanville 3.2 WNW,32.656483,96.966564,0,0.05,0.04,0.4,0.23,0,,,0.72,0.72,1
DUNDEE                   5 NW,33.81,-98.93,,,0,0,0,,,,0,0,1
EAGLE LAKE               7 NE,29.66,-96.24,0.02,8.99,4.7,5.43,2.61,0,0,,21.75,21.75,1
Eagle Mountain 2.4 WSW,32.8756719,97.4797902,0.32,,,0.37,0,0,0,0,0.69,0.69,1
EAGLE PASS                    ,28.71,-100.48,,,,0,,,,,0,0,1
East Bay Bayou @ Skillern Tract,29.62887,-94.413743,3.62,3.11,8.47,11.53,19.17,1.54,0,,47.44,47.44,1
EAST BERNARD                  ,29.53,-96.06,0.02,8.36,4.83,2.81,5.34,0,0.01,,21.37,21.37,1
East Bernard 7.6 S,29.417772,96.05768,0.07,7.6,5.24,2.37,5.19,0,0,0,20.47,20.47,1
East Fork of DB @ Fairview Rd,29.73111,-94.5828,1.69,4.29,11.3,9.96,12.76,1.57,0,,41.57,41.57,1
East Fork San Jacinto @ FM 1485,30.145153,-95.125124,0.16,4.4,13.92,4.56,4.36,0.04,0,,27.44,27.44,1
East Lucas @ Ditch 002,30.12556,-94.11972,0.4,2.71,8.98,5.47,15.08,6.97,0.04,,39.65,39.65,1
Eastex Freeway @ Ditch 001,30.1275,-94.15778,0.31,2.36,8.82,5.36,16.65,6.22,0.04,,39.76,39.76,1
Eden 2.5 SSW,31.181613,99.8595183,,1.42,0.3,0.07,,,,,1.79,1.79,1
Edgecliff 3.7 WSW,32.627346,97.39658,3.5,0.26,0.17,0.65,,,,,4.58,4.58,1
EDINBURG                      ,26.3,-98.15,,0,0,0,0,,,,0,0,1
Edinburg 2.4 N,26.33077,98.17097,0.01,0,0,0,0,0,0,0,0.01,0.01,1
EL CAMPO                15 WSW,29.16,-96.51,0.35,3.14,1.91,1.47,2.29,0.03,,,9.19,9.19,1
El Campo 1.0 NW,29.206125,96.289001,0.34,4.35,3.06,2.57,2.9,0,0,0,13.22,13.22,1
El Campo 2.5 WSW,29.184529,96.315626,,3.91,3.05,1.27,3.17,,,,11.4,11.40,1
El Campo 2.7 NW,29.227813,96.302022,0.19,4.5,3.51,1.51,3.49,0,0,0,13.2,13.2,1
El Campo 4.9 SSE,29.12673,96.26024,0.4,5.46,3.87,1.05,4.38,0,0,0,15.16,15.16,1
El Cenizo 8.8 E,27.3159,99.361,0,0,0,0,0,0,0,0,0,0,1
El Paso 1.2 WSW,31.8428153991699,106.456489562988,0,0.05,0,0,0,0,0,0,0.05,0.05,1
El Paso 1.7 W,31.851869,106.465909,0,0.07,0,,0,,,0,0.07,0.07,1
El Paso 10.7 E,31.736096,106.30876,,0,,0,0,,0,0,0,0,1
El Paso 10.7 E,31.7591972351074,106.305099487305,,0,,0,0,0,0,,0,0,1
El Paso 11.3 ENE,31.774382,106.295397,0,0,0,0,0,0,0,0,0,0,1
El Paso 2.9 SSW,31.808957,106.452469,,0.06,,,,,,,0.06,0.06,1
El Paso 3.3 NNE,31.895909,106.422171,0,0,0,0,0,0,0,0,0,0,1
El Paso 3.8 SSW,31.798876,106.464188,,0.04,,,,,,,0.04,0.04,1
El Paso 4.0 SSW,31.79359,106.45657,0,0.03,0,0,0,0,0,0,0.03,0.03,1
El Paso 4.6 NNE,31.90543333,106.39515,0,0,0,0,0,0,0,0,0,0,1
El Paso 4.6 WSW,31.8302783966064,106.513389587402,0,0,0,0,0,0,0,0,0,0,1
El Paso 4.7 N,31.91655,106.42777,,,,,0,0,0,0,0,0,1
El Paso 5.1 SW,31.790327,106.490543,,,,0,0,0,0,0,0,0,1
El Paso 5.5 SW,31.7865581512451,106.494071960449,0.01,,,0,0,0,0,0,0.01,0.01,1
El Paso 6.0 N,31.9362,106.445,0,0,0,0,0,0,0,0,0,0,1
El Paso 6.4 SE,31.7778,106.3686,0,0.03,0,0,0,0,0,0,0.03,0.03,1
El Paso 6.9 WNW,31.876959,106.55033,0,0,0,0,0,0,0,0,0,0,1
El Paso 7.6 SE,31.772977,106.344463,,0.03,,,,,,,0.03,0.03,1
El Paso 8.0 WSW,31.814128,106.566893,,0.15,,,,,,,0.15,0.15,1
El Paso 8.8 SE,31.758554,106.332506,0,0,0,0,0,0,0,0,0,0,1
El Paso 8.9 ESE,31.77908,106.3112,0,0,0,0,0,0,0,0,0,0,1
El Paso 9.1 WNW,31.8878,106.5861,,0.29,,,,,,,0.29,0.29,1
Eldorado 0.2 WSW,30.8607242,100.6005244,0.02,0.14,0.06,0.2,,,,,0.42,0.42,1
Eldorado 22.6 ENE,31.0152,100.2609,,0.42,,,,,,,0.42,0.42,1
Elgin,30.35,-97.37,,,,,,,,,10.16,0,0
ELGIN                         ,30.35,-97.37,0,2.57,5.39,2.2,0.05,0,,,10.21,10.21,1
ELGIN                    6 SSE,30.27,-97.33,0.01,1.93,7.64,2.56,0.12,0,,,12.26,12.26,1
ELGIN                    8 NW,30.42,-97.47,0.01,1.1,6.15,2.46,0.02,0,,,9.74,9.74,1
ELGIN                    9 SW,30.23,-97.43,0.01,1.89,7.51,2.04,0.07,0,,,11.52,11.52,1
Elgin 0.9 NW,30.358042,97.384201,0,1.56,6.79,2.47,0.05,0,0,0,10.87,10.87,1
Elgin 2 ENE,30.36,-97.35,,,,,,,,,8.51,0,0
Elgin 2 NE,30.38,-97.34,,,,,,,,,8.53,0,0
Elgin 2.0 W,30.354009,97.406226,,,,0,0,0,0,,0,0,1
Elgin 2.8 NNE,30.387438,97.357269,0.28,1.76,6.14,2.51,0.05,0,0,0,10.74,10.74,1
Elgin 3.4 W,30.347512,97.429789,,,4.25,1.85,0,0,0,0,6.1,6.1,1
Elgin 3.8 ENE,30.375448,97.317315,0,1.9,7.34,2.52,0.05,0,0,0,11.81,11.81,1
Elgin 3.8 W,30.343561,97.435521,0.37,3.06,4.63,2.06,,,,,10.12,10.12,1
Elgin 4.4 SSE,30.290762,97.341412,0,2.93,6.11,2.33,0,0,0,0,11.37,11.37,1
Ellington Field  ,29.6,-95.16,,,,,,,,,39.23,0,0
Ellington Field 1 SW,29.59,-95.17,,,,,,,,,39.23,0,0
Ellington Field 2 E,29.6,-95.12,,,,,,,,,52,0,0
Elliott 1.2 NNE,34.165514,99.041965,0,0.53,,,0,0,0,0,0.53,0.53,1
Elm Bayou at Fairview Road,29.73482,-94.4041,1.81,2.72,8.5,9.49,15.55,0.83,0,,38.9,38.9,1
Elmendorf 0.8 NNE,29.2683,98.3282,0.87,0.6,2.25,0.44,0,0,0,0,4.16,4.16,1
Elmendorf 5.6 ENE,29.282869,98.245602,0.35,0.65,1.98,0.72,0.01,0,0,0,3.71,3.71,1
Enchanted Rock Station 3 E,30.51,-98.77,,,,,,,,,1.51,0,0
Enchanted Rock Station 3 NW,30.54,-98.85,,,,,,,,,0.7,0,0
Enchanted Rock Station 6 S,30.41,-98.82,,,,,,,,,1.36,0,0
Enchanted Rock Station 7 NE,30.6,-98.71,,,,,,,,,1.01,0,0
Enchanted Rock Station 9 ENE,30.54,-98.69,,,,,,,,,1.23,0,0
Encino 2 W,26.93,-98.17,,0.05,,,,,,,0.05,0.05,1
Encino 5 N,27,-98.13,,0.35,,,,,,,0.35,0.35,1
Ennis 10.0 NNE,32.471294,96.562189,0,0,0.11,0.08,0,0,0,0,0.19,0.19,1
Ennis 7.0 ENE,32.362018,96.512243,0,0.13,0.03,0.42,0,0,0,0,0.58,0.58,1
Eustace 7.4 NE,32.375036,95.916245,0,0,0.06,0.05,0,0,0,0,0.11,0.11,1
Ezers Bridge,29.61318,-94.6175,1.58,4.25,7.4,9.65,13.78,0.35,0,,37.01,37.01,1
F.M. 1406 @ North Fork Taylors Bayou,29.94778,-94.40028,0.63,3.35,12.52,8.46,13.66,3.19,0,,41.81,41.81,1
Fair Oaks Ranch 0.4 WSW,29.734786,98.642528,0,0.25,1.03,0.46,0,0,0,0,1.74,1.74,1
Fair Oaks Ranch 1.1 NNW,29.751073,98.640211,0.01,0.23,0.81,0.42,0,0,0,0,1.47,1.47,1
Fair Oaks Ranch 1.8 NW,29.7571697235107,98.6527252197266,0,0.29,0.84,0.41,0,0,0,0,1.54,1.54,1
Fair Oaks Ranch 10.0 NNE,29.873664,98.585433,0.03,0.17,0.86,0.47,0,0,0,0,1.53,1.53,1
Fair Oaks Ranch 2.2 NNW,29.766739,98.646492,0,0.26,0.76,0.44,0,0,0,0,1.46,1.46,1
Fairview 1.5 ESE,33.13341,96.60034,0,0.04,0,0.22,,0,,0,0.26,0.26,1
Falfurrias,27.22,-98.14,,0.2,,,,,,,0.2,0.2,1
FALFURRIAS                    ,27.26,-98.14,,0.24,,,,,,,0.24,0.24,1
Falfurrias 0.4 WNW,27.225690856576,98.1516174226999,,0.25,,,,,,,0.25,0.25,1
Falfurrias 0.8 SSW,27.21278,98.150455,0.05,0.24,0,0.03,0,0,0,0,0.32,0.32,1
Falfurrias 8.9 SSW,27.1058789,98.2058397,0.05,0.11,0,0,0,0,0,0,0.16,0.16,1
Falls City 8.3 WSW,28.95385,98.15503,0,1.43,1.63,0.36,0,0,0,0,3.42,3.42,1
Fancher Crossing @ State Hwy 65,29.7747,-94.5544,1.42,3.34,10.32,8.34,11.66,1.06,0.04,,36.18,36.18,1
Fannett 1 NE,29.93,-94.24,,,,,,,,,49.25,0,0
Fannett 2 SW,29.9,-94.27,,,,,,,,,44.96,0,0
Fannett 5 WNW,29.95,-94.33,,,,,,,,,45,0,0
Fannett 6 SE,29.86,-94.18,,,,,,,,,39.76,0,0
Fayetteville 1.0 SW,29.896486,96.686552,0.1,4.52,9.93,7.59,0.55,0.01,0,0,22.7,22.7,1
Fayetteville 4 W,29.91,-96.74,,,,,,,,,18.47,0,0
FEDOR                         ,30.32,-97.06,0,3.36,8.7,,,,,,12.06,12.06,1
First Colony 2 SE,29.55,-95.58,,,,,,,,,39.17,0,0
FISCHER                       ,29.98,-98.26,0.31,,,0.6,0,,,,0.91,0.91,1
Fischer 2 SSE,29.95,-98.26,,,,,,,,,3.56,0,0
Fischer 2.3 ESE,29.96611,98.23,0.19,0.68,3.42,0.38,,,,,4.67,4.67,1
Fischer 4 ENE,30,-98.22,,,,,,,,,5.05,0,0
Flatonia 0.4 SW,29.68241,97.11165,0,3.84,8.04,7.23,0.13,0,0,,19.24,19.24,1
Flatonia 11.9 NNW,29.848744,97.177739,0,3.12,12.85,10.65,0,0,0,0,26.62,26.62,1
FLORENCE                 3 SE,30.8,-97.77,,,,0.36,0,,,,0.36,0.36,1
FLORENCE                 3 SW,30.81,-97.82,0.06,0.02,1.63,0.73,0,0,,,2.44,2.44,1
Florence 5.0 SSE,30.778193,97.748227,,0.16,2.59,0.88,,,,,3.63,3.63,1
Floresville 0.7 S,29.1262775,98.1565854,,,,,,0,,,0,0,1
Floresville 4 NW,29.18,-98.21,,,,,,,,,3.01,0,0
Floresville 5.7 WNW,29.1797,98.2366,0.01,0.77,2.12,0.67,0.01,0,0,0,3.58,3.58,1
Floresville 8.1 NNW,29.249549,98.195823,0.03,0.94,2.63,1.09,0.02,0,0,0,4.71,4.71,1
Floresville 8.9 WNW,29.169644,98.298755,0,0.54,1.77,0.4,,,,,2.71,2.71,1
Floresville 9.4 NW,29.247692,98.247253,0.08,0.85,1.85,0.68,0.02,0,0,,3.48,3.48,1
Floresville/San Antonio River,29.13,-98.16,,,,,,,,,3.22,0,0
Flour Bluff 1.6 SW,27.661316,97.303112,0.52,3.02,0.1,0.01,0,0,0,0,3.65,3.65,1
Flower Mound 1.3 ESE,33.020513,97.071494,,,,0.41,,,,,0.41,0.41,1
Flower Mound 1.4 SSE,33.010517,97.081701,0,0.02,0.02,0.44,0,0,0,0,0.48,0.48,1
Flower Mound 2.3 NE,33.05617142,97.07029724,0,0.02,0.02,0.03,0,0,0,0,0.07,0.07,1
FLOYDADA                      ,34,-101.33,,,0,0,,,,,0,0,1
FLOYDADA                 1 S,33.99,-101.34,,,0,0,,,,,0,0,1
FLOYDADA                 9 SE,33.88,-101.25,,,0.04,0,,,,,0.04,0.04,1
FLUVANNA                      ,32.9,-101.2,,,0,0,,,,,0,0,1
FMSP McKelligon,31.84252,106.486377,0,0,0,0,0,0,0,0,0,0,1
FMSP Tom Mays,31.916,106.51517,0,0,0,0,0,0,0,0,0,0,1
Folsom Road @ Hillebrandt Bayou (D-100),30.11528,-94.16583,0.24,1.85,8.66,5.31,14.88,4.93,0.35,,36.22,36.22,1
Forest Trail @ Ditch 1202 (Northwest Forest),30.14028,-94.24889,0.36,2.44,9.21,6.18,15.71,3.9,0,,37.8,37.8,1
FORESTBURG               5 S,33.47,-97.57,,,,,,0,,,0,0,1
Forney 1.3 SSW,32.73526,96.475515,,,0.25,,,,,,0.25,0.25,1
Fort Davis 0.3 NNW,30.592978,103.895849,0.06,0,0,0,0,0,0,0,0.06,0.06,1
Fort Davis 1.7 SSE,30.565231,103.884153,0.09,0,0,0,0,0,0,0,0.09,0.09,1
Fort McKavett 7.2 N,30.930865,100.111197,0,0.04,0,0.2,0,0,0,0,0.24,0.24,1
Fort Stockton 11.5 N,31.0582,102.8883,,,,,,0,0,0,0,0,1
FORT WORTH                    ,32.99,-97.32,,,0.05,0.14,,0,,,0.19,0.19,1
FORT WORTH                    ,32.82,-97.36,,,0.17,0.47,,0,,,0.64,0.64,1
FORT WORTH                    ,32.85,-97.48,,,0.2,0.62,0,,,,0.82,0.82,1
Fort Worth 1.8 WSW,32.742499,97.363236,,,,,0,0,0,0,0,0,1
Fort Worth 11.8 NW,32.893,97.45193333,0.37,0.04,0.13,0.35,0,0,0,0,0.89,0.89,1
Fort Worth 12.5 NW,32.874584,97.44327,,,,0.01,0,0,0,0,0.01,0.01,1
Fort Worth 13.4 N,32.920524,97.302238,0.37,0.04,0.11,0.78,0,,,,1.3,1.3,1
Fort Worth 4.0 SW,32.7093200683594,97.3794937133789,0.44,0,,0.37,0,0,0,0,0.81,0.81,1
Fort Worth 5.4 SSW,32.679714,97.362921,1.33,,,,,,,,1.33,1.33,1
Fort Worth 6.3 E,32.7511558532715,97.2273864746094,0,,,,,,,,0,0,1
Fort Worth 6.5 SSW,32.6635093688965,97.3675689697266,,,,,0,,,,0,0,1
Fredericksburg,30.24,-98.91,,,,,,,,,0.73,0,0
FREDERICKSBURG                ,30.24,-98.91,,,,,0.01,,,,0.01,0.01,1
FREDERICKSBURG           3 S,30.22,-98.87,0,0.2,0.81,0.09,0,,,,1.1,1.1,1
FREDERICKSBURG           5 N,30.34,-98.87,0,0.03,0.89,0.6,0.01,,,,1.53,1.53,1
FREDERICKSBURG           9 SW,30.17,-98.95,0.11,0.41,0.71,0.17,0,,,,1.4,1.4,1
FREDERICKSBURG          10 NNE,30.42,-98.85,0,0,0.97,0.43,0,,,,1.4,1.4,1
FREDERICKSBURG          10 SSE,30.14,-98.81,0,0.46,0.95,0.09,0,,,,1.5,1.5,1
FREDERICKSBURG          10 WSW,30.25,-99.03,0.03,0,0.45,0.22,,,,,0.7,0.7,1
FREDERICKSBURG          11 NNE,30.43,-98.81,,,0.5,,,,,,0.5,0.5,1
FREDERICKSBURG          12 NW,30.41,-99.01,0.3,0.06,1.13,0.58,,,,,2.07,2.07,1
Fredericksburg 11.4 NE,30.383283,98.732096,0,0.22,1.23,0.24,0,0,0,0,1.69,1.69,1
Fredericksburg 12.1 NNE,30.4391851,98.8157795,0,0,0.95,0.21,0,0,0,0,1.16,1.16,1
Fredericksburg 12.2 W,30.2617044,99.0766134,0.41,0.01,0.46,0.37,0,0,0,0,1.25,1.25,1
Fredericksburg 12.4 NE,30.2433,98.4437,,0.03,1.13,0.18,,,,,1.34,1.34,1
Fredericksburg 13.1 SW,30.1576416,99.0477845,,0.41,0.51,0.38,,,,,1.3,1.30,1
Fredericksburg 16.1 WSW,30.224289,99.136361,,,0,,0,0.55,0,0,0.55,0.55,1
Fredericksburg 2.0 WNW,30.279855,98.903289,0,0.32,0.61,0.35,0,0,0,0,1.28,1.28,1
Fredericksburg 4 N,30.34,-98.87,,,,,,,,,1.48,0,0
Fredericksburg 7.2 NW,30.356611,98.940789,0.2,0.3,0.95,0.56,0,0,0,0,2.01,2.01,1
Fredericksburg 7.4 ENE,30.2995,98.7521,0,0.11,0.9,0.11,0,,,,1.12,1.12,1
Fredericksburg 8.0 WNW,30.3022,99.0006,0.34,0.11,0.38,0.03,,,,,0.86,0.86,1
Fredericksburg 8.3 SSW,30.156659,98.914976,0,1.1,0,0,0,0,0,0,1.1,1.1,1
Fredericksburg 9 W,30.28,-99.02,,,,,,,,,0.67,0,0
Fredericksburg 9.1 WSW,30.22535,99.01537,0.37,0.07,0.33,0.24,0,0,0,0,1.01,1.01,1
Fredericksburg 9.1 WSW,30.226622,99.016444,0.31,0.05,0.45,0.2,,,,,1.01,1.01,1
Fredonia 3.7 NE,30.9703,99.0689,0.26,,0.43,0.45,,,,,1.14,1.14,1
FREEPORT                 2 NW,28.98,-95.38,,,12.16,4.85,,,,,17.01,17.01,1
FREER                         ,27.88,-98.62,,0.16,0.44,,0,,,,0.6,0.6,1
Freer 29.5 WSW,27.6765,99.0423,0,0,0,0,0,0,0,0,0,0,1
FRELSBURG                4 SW,29.83,-96.58,0.08,7.03,10.31,7.27,0.76,0,,,25.45,25.45,1
Frenchman Canyon,30.93111111,105.1475,,,,,,,0,,0,0,1
FRIDAY                   4 SE,31.1,-95.2,0,,,,,,,,0,0,1
Friendswood,29.5,-95.2,,,,,,,,,56,0,0
FRIENDSWOOD                   ,29.51,-95.22,,,,5.36,,,,,5.36,5.36,1
FRIENDSWOOD              2 SE,29.5,-95.16,,,,5.88,,,,,5.88,5.88,1
Friendswood 1.0 SE,29.50011,95.18734,0.31,3.95,16.59,4.89,13.04,1.34,0,0,40.12,40.12,1
Friendswood 1.4 NNE,29.5288639068604,95.1851501464844,0.07,3.37,11.6,6.57,12.45,,,0,34.06,34.06,1
Friendswood 1.6 NE,29.530768,95.180982,0.04,2.76,9.69,5.58,14.88,1.38,0,0,34.33,34.33,1
Friendswood 1.9 SSW,29.486703,95.207208,0.78,5.33,11,11,11.24,,,,39.35,39.35,1
Friendswood 2 E,29.5,-95.16,,,,,,,,,47.4,0,0
Friendswood 2 ESE,29.49,-95.16,,,,,,,,,44,0,0
Friendswood 2 NNW,29.54,-95.22,,,,,,,,,50.04,0,0
Friendswood 2.5 NNE,29.545275,95.182089,0.01,2.77,19.41,6.23,14.34,1.29,0,0,44.05,44.05,1
FRIENDSWOOD TX/CLEAR CREEK,29.52,-95.18,,,,,,1.12,,,1.12,1.12,1
Frint Road Willow Marsh Bayou,30.00222,-94.15528,0.47,1.93,8.43,7.09,23.81,4.61,0.04,,46.38,46.38,1
FRISCO                        ,33.15,-96.81,,,,0,0,,,,0,0,1
Frisco 1.9 N,33.171944,96.811667,0,0.03,0,0,0,0,0,,0.03,0.03,1
FT MCKAVETT              1 N,30.83,-100.11,,,0.14,0.02,,,,,0.16,0.16,1
Fulshear 2.7 WNW,29.707364,95.939681,,,,,,0,0,0,0,0,1
GAIL                     2 SE,32.76,-101.41,,,0,0,,,,,0,0,1
Galveston,29.2952,-94.8637,,,,,,,,,18.05,0,0
GALVESTON Scholes Field,29.27,-94.86,0.86,2.13,5.96,1.51,7.35,5.06,0,,22.87,22.87,1
Galveston 2.6 WSW,29.21888,94.93371,,3.4,4.25,0.72,7.4,0.33,,,16.1,16.1,1
Galveston 5.6 NE,29.2767,94.817,0.48,,,,,,,,0.48,0.48,1
Galveston 6.4 NE,29.28236,94.804984,0.8,2.78,7.66,2.37,7.91,4.33,,,25.85,25.85,1
Galveston 8.3 NE,29.30144,94.78169,1.14,,7.49,0.79,10.6,3.41,,,23.43,23.43,1
Galveston 8.4 NE,29.301657,94.780869,1.19,2.53,4.99,10,5.7,4.92,0,0,29.33,29.33,1
Ganado 1.5 W,29.04321,96.53674,0,7.45,0.72,0.2,3.14,0,0,0,11.51,11.51,1
Garden Ridge,29.63,-98.31,,,,,,,,,3.75,0,0
Garden Ridge 1.1 NW,29.6450271606445,98.3077926635742,0.02,0.45,2.38,0.42,,,,,3.27,3.27,1
Garden Ridge 1.2 WNW,29.641065,98.311413,0.03,0.57,2.66,0.46,0,,,0,3.72,3.72,1
Garden Ridge 3.4 NW,29.6723,98.3309,0,0.44,2.57,0.47,0,0,0,0,3.48,3.48,1
Garden Ridge 3.7 NW,29.678047,98.32866,0,0.41,3.52,0.65,0,0,0,0,4.58,4.58,1
Garden Ridge 3.9 NW,29.6795330047607,98.3322677612305,0,0.48,2.71,0.51,0,0,0,0,3.7,3.7,1
GARFIELD                      ,30.1,-97.32,0.07,2.47,11.22,2.77,0.02,0,,,16.55,16.55,1
Garland 2.6 S,32.873088,96.623847,0,0.05,0.06,0.28,,,,,0.39,0.39,1
Garland 3.6 NNW,32.955,96.6622,0,0.1,0.05,0.26,0.15,0,0,0,0.56,0.56,1
Garland 4.1 S,32.8525199890137,96.6399078369141,,0.01,0.05,0.08,0.01,,,,0.15,0.15,1
Garners Bayou @ Beltway 8,29.933648,-95.233574,0.64,6.12,15.96,6.12,3.72,0,0,,32.56,32.56,1
Garners Bayou @ Rankin Road,29.965025,-95.271954,0.56,6.92,17.44,6.64,4.24,0,0,,35.8,35.8,1
Gary City 3.8 W,32.023118,94.432634,0,0,0.1,0.45,0.1,0.22,1.42,0,2.29,2.29,1
Gatesville 12.0 SE,31.3371,97.5704,0,0.25,0.71,0.49,0,0,0,0,1.45,1.45,1
Gatesville 9.8 SW,31.3393249511719,97.8507690429688,0,0,0.42,0.29,0,,0,0,0.71,0.71,1
Gause 2.5 W,30.78998333,96.76308333,0,0.83,5.49,3.61,0.17,0,0,0,10.1,10.1,1
Gause 2.8 NNW,30.818171,96.748496,0.05,0.81,6,2.92,0.2,0.01,0,0,9.99,9.99,1
GEORGE WEST              2 SSW,28.3,-98.12,0.12,1.24,0.64,0.04,0,,,,2.04,2.04,1
George West 1.8 SSW,28.307443857193,98.1319568306208,0.12,1.24,0.64,0.04,0,0,0,0,2.04,2.04,1
George West 11.3 S,28.16765,98.09258333,,2.6,0.5,0.03,,,,,3.13,3.13,1
George West 2.7 NNW,28.363792,98.140485,0,1.2,0.15,0.03,0,0,0,0,1.38,1.38,1
George West 2.9 E,28.327166,98.075126,0.16,1.57,0.56,0.05,0,0,0,0,2.34,2.34,1
George West 8.0 NE,28.411202,98.023198,0.15,1.16,1.26,0.06,,0,0,0,2.63,2.63,1
GEORGETOWN                    ,30.67,-97.71,,,,0.38,,0,,,0.38,0.38,1
GEORGETOWN                    ,30.68,-97.68,0,0.26,3.24,1.08,0.01,0,,,4.59,4.59,1
Georgetown 0.3 N,30.651431,97.686562,,0.48,3.04,1.03,0.03,,,,4.58,4.58,1
Georgetown 1.2 W,30.650374,97.706937,0,0.54,2.43,0.91,0.02,0,0,0,3.9,3.9,1
Georgetown 1.3 WNW,30.651553,97.706978,,0.66,3.3,0.99,0.02,,,,4.97,4.97,1
Georgetown 1.4 SE,30.630938,97.671516,0,0.9,3.5,1.33,,0,0,0,5.73,5.73,1
Georgetown 1.5 WNW,30.6574783325195,97.7093048095703,,0.58,3.31,1.01,,,,,4.9,4.90,1
Georgetown 1.6 W,30.6466331481934,97.7133483886719,,0.77,2.86,0.87,0.02,,,,4.52,4.52,1
Georgetown 1.8 WSW,30.636042,97.713908,,0.78,3.4,1.2,,,,,5.38,5.38,1
Georgetown 10.2 W,30.63479,97.857386,0.62,0.28,3.01,1.14,,,,0,5.05,5.05,1
Georgetown 2 SSW,30.6,-97.69,,,,,,,,,5.09,0,0
Georgetown 2.8 NNW,30.681339263916,97.7117462158203,0,0.33,2.83,0.91,0.01,0,0,0,4.08,4.08,1
Georgetown 3.0 ESE,30.634132,97.638732,0,0.66,4.19,1.74,0.02,0,0,0,6.61,6.61,1
Georgetown 3.5 N,30.69854,97.69215,0,0.33,3.17,1,0,0,0,0,4.5,4.5,1
Georgetown 4 SSW,30.58,-97.7,,,,,,,,,4.74,0,0
Georgetown 4.3 W,30.641794,97.758409,0.05,0.46,3.04,0.86,0,0,0,,4.41,4.41,1
Georgetown 4.5 NNW,30.7116565704346,97.7025146484375,,0.8,2.8,0.86,,,,,4.46,4.46,1
Georgetown 4.5 SSE,30.5907,97.6509,0.05,0.6,4.45,1.82,0.04,0,0,0,6.96,6.96,1
Georgetown 4.6 NNW,30.70724,97.722609,0,0.4,2.84,0.88,0.01,0,0,0,4.13,4.13,1
Georgetown 4.7 NNE,30.713129,97.668105,0,,,,0.01,0,0,0,0.01,0.01,1
Georgetown 4.9 NW,30.706116,97.73386,0,0.4,3.02,0.62,0.01,0,0,0,4.05,4.05,1
Georgetown 5.0 NNW,30.708026,97.732582,0,0.5,3.16,1.19,0.1,0,0,,4.95,4.95,1
Georgetown 5.3 NNW,30.715344,97.728512,0,0.11,2.67,0.91,0,0,0,0,3.69,3.69,1
Georgetown 5.5 NNW,30.724344,97.709996,0,0.34,2.4,0.82,0.02,,,0,3.58,3.58,1
Georgetown 5.5 NNW,30.725272,97.709388,,,,,,,0,,0,0,1
Georgetown 5.9 NNW,30.71945,97.73905,0,0.18,2.48,0.84,0,0,0,0,3.5,3.5,1
Georgetown 6.6 NW,30.723719,97.75248,0,0.47,2.14,0.8,0,0,0,0,3.41,3.41,1
Georgetown 6.7 NW,30.723088,97.75712,0,0.09,2.56,0.78,0,0,0,,3.43,3.43,1
Georgetown 6.8 NW,30.723947,97.758873,0,0.35,2.43,0.91,0,0,0,0,3.69,3.69,1
Georgetown 7.3 NW,30.719922,97.77504,0,0.65,2.55,0.89,0,0,0,0,4.09,4.09,1
Georgetown 7.4 WSW,30.62157,97.80627,0.03,0.48,3.14,1.04,0.02,,0,0,4.71,4.71,1
Georgetown 8.0 WNW,30.7093,97.7994,0.01,0.58,2.51,0.83,0.02,,,,3.95,3.95,1
Georgetown 8.9 E,30.653002,97.536597,0,0.36,5.03,1.75,0.02,,,,7.16,7.16,1
Georgetown Dam 1 WNW,30.68,-97.7,,,,,,,,,5.07,0,0
Georgetown Dam 4 NW,30.72,-97.73,,,,,,,,,3.23,0,0
Gholson 2.9 SW,31.684929,97.274639,0.14,,,,,,,,0.14,0.14,1
GIDDINGS,30.17,-96.98,,,,,,,,,15.76,0,0
GIDDINGS                 3 WSW,30.17,-96.98,0,4.11,8.3,7.41,0.02,0,,,19.84,19.84,1
Giddings 7.3 NW,30.255996,97.017603,0,3.61,6.4,3.78,0.02,0,0,0,13.81,13.81,1
Gillett 1.6 WNW,29.1363667,97.8102833,0.11,2.32,3.34,1.53,0,0,0,,7.3,7.3,1
GIWW @ Chevron Duck Camp,29.68528,-94.18417,2.76,2.83,4.49,4.76,19.25,0.28,0,,34.37,34.37,1
GIWW @ Salt Bayou Outfall,29.79278,-94.00944,1.02,2.41,5.19,5.75,18.74,0.59,0.04,,33.74,33.74,1
GIWW @ State Highway 87 ( bridge ),29.82417,-93.96528,0.75,1.77,4.22,5.07,16.66,3.58,0,,32.05,32.05,1
GIWW at State Hwy 124 at Bridge,29.59556,-94.3889,3.19,4.68,5.36,9.96,14.64,1.34,0,,39.17,39.17,1
Gladys Avenue @ Hillbrandt Bayou (D-100),30.09361,-94.16444,0.4,1.81,9.68,6.34,18.35,4.92,0,,41.5,41.5,1
GLEN COVE                2 WNW,31.88,-99.63,0.47,0.27,0.1,,,,,,0.84,0.84,1
GLEN FLORA                    ,29.34,-96.2,0.22,6.92,3.94,1.91,5.15,0.01,0,,18.15,18.15,1
Glen Rose 5.1 SSW,32.166223,97.781225,0.39,0.09,0.24,0.49,0,0,0,0,1.21,1.21,1
Glenbrook Drive @ Green Acres @ Ditch 407,29.93556,-94.23111,0.39,2.8,7.52,11.22,23.97,3.35,0,,49.25,49.25,1
Glenn Heights 1.4 NE,32.566194,96.837615,0,0.16,0.1,0.75,0.01,0,0,0,1.02,1.02,1
Godley 2.6 NW,32.472473,97.561028,0.21,,0.08,0.65,0.01,,,,0.95,0.95,1
GOLD                          ,30.35,-98.69,,0.11,1.18,,,,,,1.29,1.29,1
GOLDTHWAITE              1 WSW,31.45,-98.58,0,0.01,0.13,0.23,0,,,,0.37,0.37,1
Goliad 0.1 S,28.66765,97.3918,,,,,,,,0,0,0,1
Goliad 0.4 NW,28.672833,97.396643,0.26,,1.58,,,,,0,1.84,1.84,1
Goliad 10 S,28.52,-97.39,,,,,,,,,22.68,0,0
Goliad 11.5 N,28.834927,97.407655,0.95,6.07,2.11,1.24,0.07,0,0,0,10.44,10.44,1
Goliad 14.3 NNE,28.864142,97.33107,0.83,6.13,2.7,1.34,0.12,0.01,0,0,11.13,11.13,1
Goliad 14.5 WNW,28.742355,97.615537,0.48,,,0.98,0,0,,0,1.46,1.46,1
Goliad 2.4 SE,28.649551,97.358453,0.17,7.49,1.21,0.78,0.09,0,0,0,9.74,9.74,1
Goliad 4.1 NW,28.710324,97.439919,,,,,0,0,0,0,0,0,1
Goliad 6.5 WNW,28.702768,97.491219,0.08,6.7,0.75,1.89,0,0,,0,9.42,9.42,1
Goliad 8.7 NNW,28.78611111,97.4475,0.21,6.53,1.41,1.21,0.12,0,0,0,9.48,9.48,1
GONZALES                10 SW,29.44,-97.52,0.26,2.29,4.5,3.27,0,0,,,10.32,10.32,1
Gonzales 0.6 S,29.5005957,97.447923,0.47,2.78,7.45,4.54,0,0,,0,15.24,15.24,1
Gonzales 13.2 E,29.533631131053,97.2294491529465,0.23,3.88,8.74,6.44,0.1,0.03,0,0,19.42,19.42,1
Gonzales 3.2 ENE,29.518853,97.396208,,,10.25,6.15,,,,,16.4,16.40,1
Gonzales 3.8 SW,29.471758,97.4948,0.15,2.43,8.2,2.7,,,,,13.48,13.48,1
Gonzales 4.4 NNW,29.5645398,97.4814345,0,3.47,9.12,4.94,0.07,0,0,0,17.6,17.6,1
Gonzales 4.5 SSE,29.446073,97.425052,0.42,3.56,9.22,5.77,0.05,0,0,0,19.02,19.02,1
Gonzales 9 SW,29.6,-97.55,,,,,,,,,21.37,0,0
Gonzales/Guadelupe River,29.48,-97.45,,,,,,,,,14.96,0,0
Gonzales/Roger M Dreyer Airport,29.53,-97.46,,,,,,,,,13.44,0,0
GOODRICH                 5 NW,30.63,-95.01,0,,,10.75,2.84,1.3,0.71,,15.6,15.6,1
Goose Creek @ Baker Road,29.770944,-94.999611,0.96,4,23.64,8.96,6.28,0.04,0,,43.88,43.88,1
Goose Creek @ SH 146,29.713447,-94.990514,1.32,3.8,20.04,9.12,4.76,0.04,0,,39.08,39.08,1
Gordonville 3.3 NNW,33.83638,96.881713,0.12,0,0,0,0,0,,0,0.12,0.12,1
Gordonville 3.6 NNE,33.845863,96.830433,,0.32,0,0,0,0,0,0,0.32,0.32,1
Graford 8.1 ENE,32.988267,98.121544,0.3,0.34,0.03,0,0,0,0,0,0.67,0.67,1
GRAHAM                   5 SW,33.08,-101.52,,,0,0,,,,,0,0,1
Graham 0.9 W,33.0985504388809,98.5927529633045,0,0.03,0,0,0,0,0,0,0.03,0.03,1
Graham 3.9 NW,33.133436,98.629593,,0.29,,,,,,,0.29,0.29,1
GRANBURY                 5 N,32.52,-97.81,,,0.04,0.11,0.02,0,,,0.17,0.17,1
Granbury 3.9 SSW,32.388975,97.814609,0.64,0.04,0.24,0.15,0,0,0,0,1.07,1.07,1
Granbury 4.9 E,32.4369393289089,97.7042739093304,1.25,,0.23,0.32,,,,,1.8,1.80,1
GRAND PRAIRIE            7 S,32.64,-97,,,,,,0,,,0,0,1
GRANGER                  8 E,30.73,-97.33,0.07,0.71,3.28,1.97,0.01,,,,6.04,6.04,1
Granger 6.8 WSW,30.6914,97.55097,0.03,0.65,4.04,1.58,0.03,,,,6.33,6.33,1
Granger Dam,30.7,-97.34,,,,,,,,,2.77,0,0
Granite Shoals 0.9 S,30.5766,98.381033,0,0.32,0.46,0.28,0,0,0,0,1.06,1.06,1
Granite Shoals 1.1 SE,30.579114,98.369919,0,0.03,0.45,0.24,,,,,0.72,0.72,1
Granite Shoals 4 NE,30.64,-98.33,,,,,,,,,0.77,0,0
GRAPEVINE                     ,32.97,-97.06,,,0.12,0.98,0.02,0,,,1.12,1.12,1
Grapevine 3.6 SW,32.889249,97.110567,0,,,0.68,0,0,0,0,0.68,0.68,1
Grays Prairie 4.6 S,32.406552,96.33468,0,0,0,0.03,0,0,0,0,0.03,0.03,1
Greens Bayou @ Bammel N Houston Road,29.948488,-95.498006,0.4,6.6,16.2,5.24,1.84,0,0,,30.28,30.28,1
Greens Bayou @ Beltway 8,29.938692,-95.34932,0.44,8.76,15.48,6.16,3.64,0,0,,34.48,34.48,1
Greens Bayou @ Cutten Road,29.94888888,-95.51944444444,0.36,6.84,16.2,4.72,1.6,0,0,,29.72,29.72,1
Greens Bayou @ Knobcrest Drive,29.956166,-95.416142,0.4,7.76,16.08,4.84,2.16,0,0,,31.24,31.24,1
Greens Bayou @ Ley Road,29.837012,-95.233773,0.68,9.36,18.36,6.72,3.72,0,0,,38.84,38.84,1
Greens Bayou @ Mount Houston Parkway,29.891907,-95.237623,0.6,7.2,14.36,6.16,3.6,0,0,,31.92,31.92,1
Greens Bayou @ Normandy Street,29.776023,-95.206451,0.88,10.24,17.24,8.44,4.48,0,0,,41.28,41.28,1
Greens Bayou @ US 59,29.91791,-95.306565,0.68,10.12,17.6,6.2,3,0,0,,37.6,37.6,1
GREENVILLE                    ,33.13,-96.08,,,0,0,0,0.12,0,,0.12,0.12,1
GREENVILLE               7 NW,33.17,-96.08,,,0,0,0.06,0.07,0,,0.13,0.13,1
GREENVILLE               8 SSW,33.04,-96.16,,,0.01,0,0,0.05,0,,0.06,0.06,1
Groves 1.3 N,29.96,-93.92,1.04,3.8,12.53,8.43,25.53,9.19,0.02,,60.54,60.54,1
Groves 2.5 SE,29.91,-93.89,0.87,1.78,6.04,5.11,13.28,6.32,0.02,,33.42,33.42,1
Guadelupe River St,,,,,,,,,,,2.02,0,0
Gum Gully @ Diamond Head Boulevard,29.910874,-95.09085,0.84,5.04,21.12,6.24,5.04,0,0,,38.28,38.28,1
Gun Barrel City 1.9 NW,32.347965,96.159103,0,0.03,0.06,0,0,0,0,0,0.09,0.09,1
GUNTER                   5 S,33.37,-96.77,,,,,0,,,,0,0,1
Gustine 9.8 E,31.827375,98.237081,,,1.65,0.6,0,,0,0,2.25,2.25,1
GUTHRIE                       ,33.62,-100.32,,,0,0,,,,,0,0,1
GUTHRIE                 10 WSW,33.57,-100.48,,,,0,,,,,0,0,1
GUTHRIE                 12 W,33.6,-100.53,,,0,0,,,,,0,0,1
Hackberry Gully at State Hwy 565,29.80299,-94.8433,0.95,5.15,20.4,8.07,7.28,0.12,0,,41.97,41.97,1
HALLETSVILLE             2 N,29.47,-96.94,,,,1.22,,,,,1.22,1.22,1
Hallettsville,29.44,-96.94,,,,,,,,,19.31,0,0
Hallettsville 1.6 SSE,29.42235,96.9357,0.39,3.75,7.3,4.5,1.3,0,0,0,17.24,17.24,1
Hallettsville 17.1 SE,29.255,96.76005,0,3.84,5.25,2.94,0.74,0.02,0,0,12.79,12.79,1
Hallettsville 2.0 ESE,29.4313002,96.91191666,,6.58,7.24,3.67,,,,,17.49,17.49,1
Hallettsville 4.9 E,29.44125,96.8606,0.11,8.2,20.6,4.3,5.4,0,0,,38.61,38.61,1
Hallettsville 6.8 WNW,29.474278,97.050619,0.75,3.48,9.34,4.69,0.62,,,,18.88,18.88,1
Hallettsville 7 N,29.54,-96.94,,,,,,,,,18.69,0,0
Hallettsville 8.0 N,29.559671,96.927533,0.43,3.96,9,5.73,0.15,0,0,0,19.27,19.27,1
Halls Bayou @ Airline Drive,29.892682,-95.396717,0.6,7.44,17.24,6.6,2.72,0,0,,34.6,34.6,1
Halls Bayou @ Jensen Drive,29.861698,-95.334883,0.6,8.16,16.64,6.6,2.76,0,0,,34.76,34.76,1
Halls Bayou @ Tidwell Road,29.849306,-95.282843,0.6,10.24,17.8,6.64,3.4,0,0,,38.68,38.68,1
HALLSVILLE                    ,32.51,-94.59,,,0.09,0.81,,0.05,0.02,,0.97,0.97,1
Hallsville 5.5 N,32.580479,94.580091,0,0.32,0.02,0.26,0,0.05,0.54,0,1.19,1.19,1
Hamlin 7.3 WSW,32.845047,100.247028,0,,,,,,,,0,0,1
Hamshire 11 SE,29.74,-94.18,,,,,,,,,40.59,0,0
Hamshire 2 W,29.86,-94.34,,,,,,,,,43.94,0,0
Hamshire 5 SSW,29.79,-94.34,,,,,,,,,45.79,0,0
Harker Heights 1.7 NW,31.07601,97.67733,0,0,1.83,0.32,0,0,0,0,2.15,2.15,1
Harker Heights 2.4 S,31.027297,97.650762,0,0.02,1.36,0.66,0,0,0,0,2.04,2.04,1
HARLINGEN                     ,26.23,-97.65,0.33,0.03,0,0,,,,,0.36,0.36,1
Harlingen 0.4 N,26.2010173797607,97.6856231689453,0.35,0.1,0,0,0,0,0,0,0.45,0.45,1
HARLINGEN 2 E,26.2,-97.67,0.32,0.05,0,0,0,,,,0.37,0.37,1
Harlingen 2 N,26.22,-97.69,,0.04,,,,,,,0.04,0.04,1
Harlingen 2 NE,26.41,-97.43,,0.35,,,,,,,0.35,0.35,1
Harlingen 20 SE,25.98,97.46,,0.38,,,,,,,0.38,0.38,1
Harlingen 3 WSW,26.17,-97.73,,0.29,,,,,,,0.29,0.29,1
Harlingen 4.4 W/Comes 3 SW,26.201033,97.756545,0.13,0.16,0,0,0,0,0,0,0.29,0.29,1
Harlingen 4.7 WSW,26.181045,97.764346,0.11,0.11,,,0,,0,,0.22,0.22,1
Harlingen 6.2 WSW,26.163527,97.780598,0.06,0.02,0,0,0,0,0,0,0.08,0.08,1
Harper,30.3,-99.24,,,,,,,,,1.07,0,0
HARPER                        ,30.3,-99.26,0.33,0.13,0.74,0.2,,,,,1.4,1.4,1
HARPER                   6 NW,30.36,-99.33,0,0,0.44,0.63,,,,,1.07,1.07,1
HARPER                   8 NE,30.38,-99.15,0.84,0.03,0.43,0.2,,,,,1.5,1.5,1
HARPER                   8 SSE,30.19,-99.18,0.3,0,0.31,0.29,,,,,0.9,0.9,1
HARPER                  13 NW,30.43,-99.4,0.01,0.14,0.27,0.42,,,,,0.84,0.84,1
Harper 1.0 NW,30.310006,99.256235,0.54,0.17,0.38,0.23,0,0,0,0,1.32,1.32,1
Harper 1.1 ENE,30.30222,99.226384,,0.13,0.52,0.13,,,,,0.78,0.78,1
Harper 1.4 S,30.2798,99.2417,0.95,,0.77,0.23,,,,,1.95,1.95,1
Harper 10.1 SSE,30.178063,99.153334,1.18,0.09,0.32,0,,,,,1.59,1.59,1
Harper 3 SSW,30.27,-99.25,,,,,,,,,0.8,0,0
Harper 3.7 SW,30.268176,99.29255,0,1.35,0.53,0.05,0,0,0,0,1.93,1.93,1
Harper 4.3 SW,30.257501,99.296324,,0.22,0.27,0.23,,,,,0.72,0.72,1
Harper 5 WSW,30.32,-99.31,,,,,,,,,0.65,0,0
Harper 5.4 N,30.37833333,99.24972222,,,0.55,0.53,,,,,1.08,1.08,1
Harper 9 N,30.45,-99.24,,,,,,,,,1.17,0,0
Harris County Flood Control @ Brookhollow,29.806225,-95.452383,0.72,6.6,16.52,6.16,1.88,0,0,,31.88,31.88,1
Harris Gully @ South McGregor Way,29.707682,-95.392158,1.04,6.16,15.32,8.48,2.88,0,0,,33.88,33.88,1
Harwood 4.7 NNE,29.7318,97.4853,0.02,1.82,5.87,5.15,0.05,,,,12.91,12.91,1
Harwood 5.0 N,29.737888,97.499107,0,,,,,0,0,0,0,0,1
Haskell 0.5 NW,33.1642115,99.738849,0,0.45,0,0,0,0,0,0,0.45,0.45,1
Haslet 2.2 S,32.9259643554688,97.3398818969727,0.36,0.04,0.12,0.39,0,0,0,0,0.91,0.91,1
Hays,30.12,-97.87,,,,,,,,,8.83,0,0
Hays 1 W,30.12,-97.89,,,,,,,,,5.73,0,0
Hays 2 WNW,30.13,-97.89,,,,,,,,,9.21,0,0
Hays 4.4 NW,30.1733,97.9167,,,3.4,1.36,0.02,,,,4.78,4.78,1
Hays 5.0 NW,30.164,97.94,,0.78,5.65,1.33,0.02,,0,0,7.78,7.78,1
Hays 6.0 WNW,30.166707,97.957619,0,1.38,5.28,1.34,0.02,0,0,0,8.02,8.02,1
Hebbronville 13.6 E,27.340319,98.464982,0,0,0,0,0,0,0,0,0,0,1
Hebert Heirs Marsh Ditch 551-G,29.851389,-94.073889,0.59,2.64,5.74,6.82,20.07,1.5,0.04,,37.4,37.4,1
Hedwig Village 1.1 NNW,29.7945919036865,95.5261077880859,0,1.4,11.12,10.49,6.7,0.55,0,0,30.26,30.26,1
Helotes 1.0 ENE,29.572029,98.677986,0,0.28,1.05,0.3,0,0,0,0,1.63,1.63,1
Helotes 1.3 NE,29.58239,98.67926,,0.32,1.01,0.29,,,,,1.62,1.62,1
Helotes 1.3 NNW,29.585285,98.701115,0,0.23,0.94,0.2,0,0,,,1.37,1.37,1
Helotes 10.5 WNW,29.631433,98.852577,0,0.03,0.7,,,,,0,0.73,0.73,1
Helotes 2 S,29.56,-98.69,,,,,,,,,1.16,0,0
Helotes 2.0 S,29.53929,98.696927,0.18,0.28,0.38,0.43,0,0,0,0,1.27,1.27,1
Helotes 2.4 NNW,29.599,98.7127,0,0.25,1.05,0.27,0,0,0,0,1.57,1.57,1
Helotes 3.7 SSE,29.51703262,98.67495728,0.25,0.27,0.78,0,0,0,0,0,1.3,1.3,1
Helotes 4 WSW,29.56,-98.74,,,,,,,,,0.59,0,0
Hemphill 8.6 E,31.320556,93.707172,0,0,0.6,4.5,1.4,5.7,,,12.2,12.2,1
Hempstead 10.0 NNW,30.22988,96.13557,1.24,2.09,10.05,7.5,0.95,0.04,0,0,21.87,21.87,1
HENDERSON                     ,32.16,-94.83,,,0.14,0.34,0.02,0.13,0.78,,1.41,1.41,1
HENDERSON                     ,32.18,-94.8,,,0.15,0.28,0.03,0.16,0.65,,1.27,1.27,1
Henderson 6.1 NW,32.217138,94.87433,0,0.01,0.19,0.21,0,0.03,0.7,0,1.14,1.14,1
Henderson 6.9 WNW,32.1818178,94.910682,0,0.02,0.17,0.23,0.06,0.13,0.56,0,1.17,1.17,1
Henderson 7.0 SSW,32.071761,94.862763,0,0.02,0.16,0.56,0.02,0.16,0.5,0,1.42,1.42,1
Henly,30.19,-98.09,,,,,,,,,5.17,0,0
Henly 3 NE,30.22,-98.06,,,,,,,,,2.42,0,0
HENRIETTA                3 W,33.83,-98.24,,,0,0,0,,,,0,0,1
Hereford 2.4 ENE,34.835141,102.358231,0.84,0,0,0,0,0,0,0,0.84,0.84,1
Hewitt 1.4 NNW,31.4689445495605,97.2030334472656,1,0.02,0.79,0.35,,,,0,2.16,2.16,1
Highland Avenue @ Ditch 104,30.03194,-94.08333,0.67,2.96,10.43,6.38,19.96,6.1,0,,46.5,46.5,1
Highland Haven 1.3 SW,30.599532,98.397607,0.45,0,0.61,0.39,0,0,0,0,1.45,1.45,1
Highlands 2 SSE,29.79,-95.04,,,,,,,,,45.1,0,0
Hill Country Village 1.2 SE,29.572784,98.477463,0,0.3,1.57,0.17,0,0,0,0,2.04,2.04,1
Hill Country Village 2.3 ESE,29.56911,98.45733,,,0.9,0.06,0,0,0,,0.96,0.96,1
Hillebrandt Bayou @ Hillebrandt Road D-100,29.92806,-94.11028,0.52,1.61,6.1,6.34,23.11,3.19,0,,40.87,40.87,1
HILLSBORO                     ,32.02,-97.12,,,0.23,,,,,,0.23,0.23,1
Hitchcock 1.6 NNW,29.338008,95.026056,1.7,3.18,18.2,3.02,10.41,2.07,0,0,38.58,38.58,1
HOCKLEY                       ,29.92,-95.84,,2.42,,,3.56,,,,5.98,5.98,1
Hockley 2.5 ESE,30.0212,95.804333,,3.65,,,,,,,3.65,3.65,1
Hollywood Park 0.7 NW,29.6061267852783,98.4925155639648,0.31,0.34,1.32,0.22,0,0,0,0,2.19,2.19,1
Hollywood Park 1.6 N,29.622016,98.479674,0.05,0.43,3.26,0.43,,,,,4.17,4.17,1
Hollywood Park 1.7 ESE,29.59027,98.457922,0,0.36,1.58,0.24,0,0,0,0,2.18,2.18,1
Hollywood Park 1.8 N,29.624933,98.487861,0.03,0.12,0.65,0.04,,,,,0.84,0.84,1
Hollywood Park 3 NE,29.63,-98.46,,,,,,,,,2.79,0,0
Hollywood Park 3.1 NE,29.629225,98.446311,,,2.73,,,,,,2.73,2.73,1
Hollywood Park 3.3 ENE,29.609011,98.431278,0,0.39,1.89,0.15,0,0,0,0,2.43,2.43,1
Hollywood Park 3.7 NNE,29.6486434936523,98.4614944458008,0.1,0.33,2.45,0.29,0,0,0,0,3.17,3.17,1
Hollywood Park 4.3 ENE,29.620108,98.416876,0,0.37,3.96,0.34,0,0,0,0,4.67,4.67,1
Hollywood Park 4.5 NE,29.647582,98.433828,0.13,,,0.22,0.01,0,0,0,0.36,0.36,1
Hollywood Park 5 ENE,29.62,-98.43,,,,,,,,,2.74,0,0
Hollywood Park 5.2 NE,29.647416,98.417802,0.15,0.4,2.55,0.29,0,0,0,0,3.39,3.39,1
HONDO                         ,29.36,-99.18,0,0.01,0.05,0,,,,,0.06,0.06,1
Hondo 11.0 E,29.33546667,98.97748333,,,0.35,0.06,,,0,,0.41,0.41,1
Hondo 14.1 ENE,29.4327,98.9413,0,0.01,0.12,0,0,0,0,0,0.13,0.13,1
Hondo 2.0 SE,29.3337122,99.1386528,0,0.03,0.04,0,0,0,0,0,0.07,0.07,1
Hondo 3.4 S,29.307901,99.162915,0,0.08,0.07,0,0,0,0,0,0.15,0.15,1
Hondo 5.6 ESE,29.32529,99.07222,,0,0.07,,,,,,0.07,0.07,1
Hondo 6.9 SSE,29.26,99.13,0,0,0.06,0.05,0,0,0,0,0.11,0.11,1
Hondo 7.7 NW,29.435281,99.249233,0,0.03,0.05,0,0,0,0,0,0.08,0.08,1
Hondo 8.7 E,29.356372,99.0171451,0,0.01,0.08,0,0,0,0,0,0.09,0.09,1
Hondo 8.7 ENE,29.40432,99.02463,0,0.02,0.04,0,0,0,0,0,0.06,0.06,1
Hondo 8.8 E,29.353033,99.011713,0,0.01,0.06,0.01,0,0,0,0,0.08,0.08,1
Horsepen @ Trailside Drive,29.883876,-95.634673,0.68,9.24,14.48,4.12,1.32,0,0,,29.84,29.84,1
Horsepen Creek @ Bay Area Boulevard,29.583671,-95.103438,1.84,8.52,19.12,12.28,3.92,0,0,,45.68,45.68,1
Horseshoe Bay 2.7 S,30.49775,98.359883,0.33,0.59,1.29,0.61,0,0,0,0,2.82,2.82,1
Horseshoe Bay 4.1 WNW,30.555515,98.419655,0,0.07,0.76,,,,,,0.83,0.83,1
Horseshoe Bay 5 WSW,30.56,-98.46,,,,,,,,,1.71,0,0
Horseshoe Bay Resort Airport,30.53,-98.36,,,,,,,,,1.49,0,0
HOUSTON                       ,29.88,-95.4,,,,9.64,,,,,9.64,9.64,1
HOUSTON                       ,29.59,-95.22,0.04,,,,,,,,0.04,0.04,1
HOUSTON                       ,29.75,-95.51,,2.36,,,,,,,2.36,2.36,1
HOUSTON                       ,29.8,-95.45,,,,8,,,,,8,8,1
HOUSTON                       ,29.71,-94.99,,,,7.6,,,,,7.6,7.6,1
HOUSTON                       ,29.68,-95.47,,,,8,,,,,8,8,1
HOUSTON                       ,29.58,-95.1,,,,7.72,,,,,7.72,7.72,1
HOUSTON                       ,29.75,-95.29,,,,9,,,,,9,9,1
HOUSTON                       ,29.72,-95.3,0.04,,,,,,,,0.04,0.04,1
HOUSTON                       ,29.89,-95.23,,,,,8.25,,,,8.25,8.25,1
HOUSTON                       ,29.78,-95.73,,,8.28,,,,,,8.28,8.28,1
HOUSTON                       ,29.71,-95.35,,,,6.8,,,,,6.8,6.8,1
HOUSTON                 12 N,29.94,-95.35,,,,9.16,,,,,9.16,9.16,1
Houston 1.4 NE,29.785794,95.373454,,3.02,14.2,10.44,7.56,1.02,0,0,36.24,36.24,1
Houston 1.9 W,29.7730579376221,95.4182891845703,,3.2,11.4,8.14,7.5,0.86,0.02,,31.12,31.12,1
Houston 2.1 NNE,29.797255,95.374054,0.03,2.92,11.2,9.72,7.35,1,0,0,32.22,32.22,1
Houston 2.1 SSW,29.739753,95.397682,0.02,2.63,13.8,6.09,8.29,0.93,0,0,31.76,31.76,1
Houston 4.7 WNW,29.805381,95.452853,0,3,11.25,,,,0,0,14.25,14.25,1
HOUSTON Bush Intercontinental Airport,29.98,-95.34,0,0.89,13.43,10.75,5.28,0.91,0,,31.26,31.26,1
HOUSTON Bush Intercontinental Airport 4 N,30.03,-95.33,,,,,,,,,34.9,0,0
HOUSTON Pearland/Clover Field                ,29.52,-95.24,0.22,3.43,11.26,4.94,12.42,1.32,0.84,,34.43,34.43,1
Houston Transtar,29.782684,-95.439563,0.92,7.76,17.08,6.72,2.2,0,0,,34.68,34.68,1
HOUSTON TX/HUNTING BAYOU AT HOFFMAN ST,29.81,-95.31,,,,,8.04,,,,8.04,8.04,1
HOUSTON/BERRY BAYOU @ NEVADA ST             ,29.68,-95.24,,,,8.28,,,,,8.28,8.28,1
HOUSTON/BRAYS BAYOU @ GESSNER DR                ,29.67,-95.53,,,,,7.91,,,,7.91,7.91,1
HOUSTON/BRICKHOUSE GULLY @ COSTA RICA ST               ,29.83,-95.47,,,,8.52,,,,,8.52,8.52,1
HOUSTON/COLE CREEK @ DEIHL RD                   ,29.85,-95.49,,,,9.16,,,,,9.16,9.16,1
HOUSTON/D. W. Hooks Airport ,30.06,-95.55,0,1.47,10.42,10.4,4.16,0.56,0,,27.01,27.01,1
Houston/D. W. Hooks Airport 3 N,30.1,-95.55,,,,,,,,,27.2,0,0
HOUSTON/GREENS BAYOU @ CUTTEN RD,29.95,-95.5,,,,,4.88,,,,4.88,4.88,1
HOUSTON/GREENS BAYOU @ LEY RD                  ,29.84,-95.23,,1.68,,,,,,,1.68,1.68,1
HOUSTON/LITTLE WHITEOAK BAYOU @ TRIMBLE ST                  ,29.8,-95.37,,,,9.12,,,,,9.12,9.12,1
HOUSTON/Meyerland 1 S,29.68,-95.47,0.02,2.98,12.73,6.25,8.46,0.87,,,31.31,31.31,1
HOUSTON/SIMS BAYOU @ HIRAM CLARKE ST                   ,29.62,-95.45,0.12,,,,,,,,0.12,0.12,1
HOUSTON/Sugarland/Hull Field           ,29.62,-95.66,0.33,7,,8.28,6.79,0.27,,,22.67,22.67,1
HOUSTON/William P Hobby Airport               ,29.65,-95.28,0.02,2.94,12.33,5.9,10.4,5.42,0,,37.01,37.01,1
HUFFMAN                  3 N,30.05,-95.05,,,,,,2.28,,,2.28,2.28,1
Huffman 3 N,30.06,-95.1,,,,,,,,,31.8,0,0
Humble 4 S,29.93,-95.26,,,,,,,,,38.88,0,0
Humble/GARNERS BAYOU,29.93,-95.23,,,,,7.84,,,,7.84,7.84,1
Hunt 1.4 NNE,30.091,99.332,0,0.01,0.26,0.22,,,,0,0.49,0.49,1
Hunt/Guadelupe River,30.07,-99.34,,,,,,,,,0.15,0,0
Hunting Bayou @ I-10,29.771615,-95.227954,0.76,11.92,14.6,8.2,4.16,0,0,,39.64,39.64,1
Hunting Bayou @ Lockwood Drive,29.808772,-95.312927,0.84,9.68,16.44,6.92,2.88,0,0,,36.76,36.76,1
Hunting Bayou @ Loop 610 East,29.79305555,-95.267777777,0.8,10.84,15.52,7.2,3.4,0,0,,37.76,37.76,1
HUNTSVILLE                    ,30.71,-95.54,0,,,12.24,2.96,0.8,0.05,,16.05,16.05,1
HUNTSVILLE                    ,30.75,-95.59,0,0.06,6.12,11.03,1.87,0.65,0,,19.73,19.73,1
Huntsville 1.3 SSE,30.695361,95.540406,0.03,0.5,6.8,14.3,2,0.05,0,0,23.68,23.68,1
Huntsville 10.4 NNE,30.851542,95.48246,,,8,7.72,0.67,0.65,,,17.04,17.04,1
Huntsville 11.5 WSW,30.625567,95.71475,0,0.38,11.82,11.6,1.82,0.58,0,0,26.2,26.2,1
Huntsville 2.3 S,30.679,95.555,0,0.15,7.75,10.43,1.86,0.8,0.2,0,21.19,21.19,1
Huntsville 2.8 SE,30.68222222,95.5175,,,7.8,12.5,1.68,0.85,0.02,,22.85,22.85,1
Huntsville 2.8 WSW,30.702,95.596,0.26,0.15,7.77,12.74,2.23,0.73,0.01,0,23.89,23.89,1
Huntsville 3.6 NNW,30.7586630433798,95.5759605020285,0,0.06,6.82,11,2.35,0.75,0,0,20.98,20.98,1
Huntsville 4.8 NNW,30.775136500597,95.5834519118071,0,0.05,6.5,11.65,2.05,0.67,0,0,20.92,20.92,1
Huntsville 7.1 ESE,30.683056,95.435278,0,0,7.45,14.75,2.84,0.85,0,0,25.89,25.89,1
Hurst 0.8 W,32.836093,97.194101,0.27,0.02,0.15,0.85,,,,,1.29,1.29,1
Hutto,30.54,-97.55,,,,,,,,,5.26,0,0
Hutto 0.8 WNW,30.5494785308838,97.554443359375,0.02,0.79,4.39,2.09,0.02,0,0,0,7.31,7.31,1
Hutto 1.3 W,30.5459480285645,97.5641555786133,0.07,3.57,2.93,0.17,0,0,0,0,6.74,6.74,1
Hutto 3 W,30.54,-97.6,,,,,,,,,4.97,0,0
Hutto 4.1 SW,30.5027732849121,97.589241027832,0.49,2.41,4.05,0.65,,,,,7.6,7.60,1
Hutto Dam #20,,,,,,,,,,,6.6,0,0
Hutto Dam #21,,,,,,,,,,,6.19,0,0
Hutto Dam #22,,,,,,,,,,,5.12,0,0
I-10/I-610 East,29.77,-95.27,,,,,,,,,42.52,0,0
I-10/I-610 East 2 SSW,29.74,-95.29,,,,,,,,,34.4,0,0
I-10/I-610 East 5 N,29.84,-95.28,,,,,,,,,38.2,0,0
I-45/I-610 North 3 NNW,29.84,-95.4,,,,,,,,,35,0,0
I-45/I-610 South 2 NNW,29.72,-95.31,,,,,,,,,35.2,0,0
I-45/I-610 South 2 NW,29.72,-95.33,,,,,,,,,41.92,0,0
Inez 1.1 SSE,28.860295,96.787646,0.66,7.91,3.66,1.22,0.84,0,0,0,14.29,14.29,1
Inez 5.3 SSW,28.804625,96.826581,0.64,10.45,,,,,,,11.09,11.09,1
Ingram 1.1 NNW,30.0933333333,99.244444444,0,0.14,0.31,0.67,0,0,0,0,1.12,1.12,1
Ingram 1.2 WSW,30.074429,99.256695,,,,,0,0,0,,0,0,1
Ingram 1.2 WSW,30.074945,99.257056,0.16,0.09,0.06,0.44,0,0,0,0,0.75,0.75,1
Ingram 10.2 NW,30.166111,99.374722,0,0.03,0.19,0.1,0,0,0,0,0.32,0.32,1
Ingram 14.2 NW,30.247173,99.371887,0.26,0.17,0.35,0.59,,,,,1.37,1.37,1
Ingram 2.1 W,30.081516,99.271114,0.02,0.07,0.2,0.16,,,,,0.45,0.45,1
